timestamp,field,value
1759877101.6545784,time_usec,51163000
1759877101.6545784,fix_type,6
1759877101.6545784,lat,-353633245
1759877101.6545784,lon,1491652241
1759877101.6545784,alt,100
1759877101.6545784,eph,121
1759877101.6545784,epv,200
1759877101.6545784,vel,0
1759877101.6545784,cog,0
1759877101.6545784,satellites_visible,10
1759877101.6545784,alt_ellipsoid,100
1759877101.6545784,h_acc,300
1759877101.6545784,v_acc,300
1759877101.6545784,vel_acc,0
1759877101.6545784,hdg_acc,0
1759877101.6545784,yaw,0
1759877101.8527682,time_usec,51363000
1759877101.8527682,fix_type,6
1759877101.8527682,lat,-353633245
1759877101.8527682,lon,1491652241
1759877101.8527682,alt,100
1759877101.8527682,eph,121
1759877101.8527682,epv,200
1759877101.8527682,vel,0
1759877101.8527682,cog,0
1759877101.8527682,satellites_visible,10
1759877101.8527682,alt_ellipsoid,100
1759877101.8527682,h_acc,300
1759877101.8527682,v_acc,300
1759877101.8527682,vel_acc,0
1759877101.8527682,hdg_acc,0
1759877101.8527682,yaw,0
1759877102.0565195,time_usec,51563000
1759877102.0565195,fix_type,6
1759877102.0565195,lat,-353633245
1759877102.0565195,lon,1491652241
1759877102.0565195,alt,100
1759877102.0565195,eph,121
1759877102.0565195,epv,200
1759877102.0565195,vel,0
1759877102.0565195,cog,0
1759877102.0565195,satellites_visible,10
1759877102.0565195,alt_ellipsoid,100
1759877102.0565195,h_acc,300
1759877102.0565195,v_acc,300
1759877102.0565195,vel_acc,0
1759877102.0565195,hdg_acc,0
1759877102.0565195,yaw,0
1759877102.254855,time_usec,51763000
1759877102.254855,fix_type,6
1759877102.254855,lat,-353633245
1759877102.254855,lon,1491652241
1759877102.254855,alt,100
1759877102.254855,eph,121
1759877102.254855,epv,200
1759877102.254855,vel,0
1759877102.254855,cog,0
1759877102.254855,satellites_visible,10
1759877102.254855,alt_ellipsoid,100
1759877102.254855,h_acc,300
1759877102.254855,v_acc,300
1759877102.254855,vel_acc,0
1759877102.254855,hdg_acc,0
1759877102.254855,yaw,0
1759877102.4533033,time_usec,51963000
1759877102.4533033,fix_type,6
1759877102.4533033,lat,-353633245
1759877102.4533033,lon,1491652241
1759877102.4533033,alt,100
1759877102.4533033,eph,121
1759877102.4533033,epv,200
1759877102.4533033,vel,0
1759877102.4533033,cog,0
1759877102.4533033,satellites_visible,10
1759877102.4533033,alt_ellipsoid,100
1759877102.4533033,h_acc,300
1759877102.4533033,v_acc,300
1759877102.4533033,vel_acc,0
1759877102.4533033,hdg_acc,0
1759877102.4533033,yaw,0
1759877102.651716,time_usec,52163000
1759877102.651716,fix_type,6
1759877102.651716,lat,-353633245
1759877102.651716,lon,1491652241
1759877102.651716,alt,100
1759877102.651716,eph,121
1759877102.651716,epv,200
1759877102.651716,vel,0
1759877102.651716,cog,0
1759877102.651716,satellites_visible,10
1759877102.651716,alt_ellipsoid,100
1759877102.651716,h_acc,300
1759877102.651716,v_acc,300
1759877102.651716,vel_acc,0
1759877102.651716,hdg_acc,0
1759877102.651716,yaw,0
1759877102.8557448,time_usec,52363000
1759877102.8557448,fix_type,6
1759877102.8557448,lat,-353633245
1759877102.8557448,lon,1491652241
1759877102.8557448,alt,100
1759877102.8557448,eph,121
1759877102.8557448,epv,200
1759877102.8557448,vel,0
1759877102.8557448,cog,0
1759877102.8557448,satellites_visible,10
1759877102.8557448,alt_ellipsoid,100
1759877102.8557448,h_acc,300
1759877102.8557448,v_acc,300
1759877102.8557448,vel_acc,0
1759877102.8557448,hdg_acc,0
1759877102.8557448,yaw,0
1759877103.0538964,time_usec,52563000
1759877103.0538964,fix_type,6
1759877103.0538964,lat,-353633245
1759877103.0538964,lon,1491652241
1759877103.0538964,alt,100
1759877103.0538964,eph,121
1759877103.0538964,epv,200
1759877103.0538964,vel,0
1759877103.0538964,cog,0
1759877103.0538964,satellites_visible,10
1759877103.0538964,alt_ellipsoid,100
1759877103.0538964,h_acc,300
1759877103.0538964,v_acc,300
1759877103.0538964,vel_acc,0
1759877103.0538964,hdg_acc,0
1759877103.0538964,yaw,0
1759877103.2522306,time_usec,52763000
1759877103.2522306,fix_type,6
1759877103.2522306,lat,-353633245
1759877103.2522306,lon,1491652241
1759877103.2522306,alt,100
1759877103.2522306,eph,121
1759877103.2522306,epv,200
1759877103.2522306,vel,0
1759877103.2522306,cog,0
1759877103.2522306,satellites_visible,10
1759877103.2522306,alt_ellipsoid,100
1759877103.2522306,h_acc,300
1759877103.2522306,v_acc,300
1759877103.2522306,vel_acc,0
1759877103.2522306,hdg_acc,0
1759877103.2522306,yaw,0
1759877103.4562154,time_usec,52963000
1759877103.4562154,fix_type,6
1759877103.4562154,lat,-353633245
1759877103.4562154,lon,1491652241
1759877103.4562154,alt,100
1759877103.4562154,eph,121
1759877103.4562154,epv,200
1759877103.4562154,vel,0
1759877103.4562154,cog,0
1759877103.4562154,satellites_visible,10
1759877103.4562154,alt_ellipsoid,100
1759877103.4562154,h_acc,300
1759877103.4562154,v_acc,300
1759877103.4562154,vel_acc,0
1759877103.4562154,hdg_acc,0
1759877103.4562154,yaw,0
1759877103.6546524,time_usec,53163000
1759877103.6546524,fix_type,6
1759877103.6546524,lat,-353633245
1759877103.6546524,lon,1491652241
1759877103.6546524,alt,100
1759877103.6546524,eph,121
1759877103.6546524,epv,200
1759877103.6546524,vel,0
1759877103.6546524,cog,0
1759877103.6546524,satellites_visible,10
1759877103.6546524,alt_ellipsoid,100
1759877103.6546524,h_acc,300
1759877103.6546524,v_acc,300
1759877103.6546524,vel_acc,0
1759877103.6546524,hdg_acc,0
1759877103.6546524,yaw,0
1759877103.8529742,time_usec,53363000
1759877103.8529742,fix_type,6
1759877103.8529742,lat,-353633245
1759877103.8529742,lon,1491652241
1759877103.8529742,alt,100
1759877103.8529742,eph,121
1759877103.8529742,epv,200
1759877103.8529742,vel,0
1759877103.8529742,cog,0
1759877103.8529742,satellites_visible,10
1759877103.8529742,alt_ellipsoid,100
1759877103.8529742,h_acc,300
1759877103.8529742,v_acc,300
1759877103.8529742,vel_acc,0
1759877103.8529742,hdg_acc,0
1759877103.8529742,yaw,0
1759877104.0566502,time_usec,53563000
1759877104.0566502,fix_type,6
1759877104.0566502,lat,-353633245
1759877104.0566502,lon,1491652241
1759877104.0566502,alt,100
1759877104.0566502,eph,121
1759877104.0566502,epv,200
1759877104.0566502,vel,0
1759877104.0566502,cog,0
1759877104.0566502,satellites_visible,10
1759877104.0566502,alt_ellipsoid,100
1759877104.0566502,h_acc,300
1759877104.0566502,v_acc,300
1759877104.0566502,vel_acc,0
1759877104.0566502,hdg_acc,0
1759877104.0566502,yaw,0
1759877104.2552018,time_usec,53763000
1759877104.2552018,fix_type,6
1759877104.2552018,lat,-353633245
1759877104.2552018,lon,1491652241
1759877104.2552018,alt,100
1759877104.2552018,eph,121
1759877104.2552018,epv,200
1759877104.2552018,vel,0
1759877104.2552018,cog,0
1759877104.2552018,satellites_visible,10
1759877104.2552018,alt_ellipsoid,100
1759877104.2552018,h_acc,300
1759877104.2552018,v_acc,300
1759877104.2552018,vel_acc,0
1759877104.2552018,hdg_acc,0
1759877104.2552018,yaw,0
1759877104.4534926,time_usec,53963000
1759877104.4534926,fix_type,6
1759877104.4534926,lat,-353633245
1759877104.4534926,lon,1491652241
1759877104.4534926,alt,100
1759877104.4534926,eph,121
1759877104.4534926,epv,200
1759877104.4534926,vel,0
1759877104.4534926,cog,0
1759877104.4534926,satellites_visible,10
1759877104.4534926,alt_ellipsoid,100
1759877104.4534926,h_acc,300
1759877104.4534926,v_acc,300
1759877104.4534926,vel_acc,0
1759877104.4534926,hdg_acc,0
1759877104.4534926,yaw,0
1759877104.6518779,time_usec,54163000
1759877104.6518779,fix_type,6
1759877104.6518779,lat,-353633245
1759877104.6518779,lon,1491652241
1759877104.6518779,alt,100
1759877104.6518779,eph,121
1759877104.6518779,epv,200
1759877104.6518779,vel,0
1759877104.6518779,cog,0
1759877104.6518779,satellites_visible,10
1759877104.6518779,alt_ellipsoid,100
1759877104.6518779,h_acc,300
1759877104.6518779,v_acc,300
1759877104.6518779,vel_acc,0
1759877104.6518779,hdg_acc,0
1759877104.6518779,yaw,0
1759877104.8559086,time_usec,54363000
1759877104.8559086,fix_type,6
1759877104.8559086,lat,-353633245
1759877104.8559086,lon,1491652241
1759877104.8559086,alt,100
1759877104.8559086,eph,121
1759877104.8559086,epv,200
1759877104.8559086,vel,0
1759877104.8559086,cog,0
1759877104.8559086,satellites_visible,10
1759877104.8559086,alt_ellipsoid,100
1759877104.8559086,h_acc,300
1759877104.8559086,v_acc,300
1759877104.8559086,vel_acc,0
1759877104.8559086,hdg_acc,0
1759877104.8559086,yaw,0
1759877105.0542476,time_usec,54563000
1759877105.0542476,fix_type,6
1759877105.0542476,lat,-353633245
1759877105.0542476,lon,1491652241
1759877105.0542476,alt,100
1759877105.0542476,eph,121
1759877105.0542476,epv,200
1759877105.0542476,vel,0
1759877105.0542476,cog,0
1759877105.0542476,satellites_visible,10
1759877105.0542476,alt_ellipsoid,100
1759877105.0542476,h_acc,300
1759877105.0542476,v_acc,300
1759877105.0542476,vel_acc,0
1759877105.0542476,hdg_acc,0
1759877105.0542476,yaw,0
1759877105.2524977,time_usec,54763000
1759877105.2524977,fix_type,6
1759877105.2524977,lat,-353633245
1759877105.2524977,lon,1491652241
1759877105.2524977,alt,100
1759877105.2524977,eph,121
1759877105.2524977,epv,200
1759877105.2524977,vel,0
1759877105.2524977,cog,0
1759877105.2524977,satellites_visible,10
1759877105.2524977,alt_ellipsoid,100
1759877105.2524977,h_acc,300
1759877105.2524977,v_acc,300
1759877105.2524977,vel_acc,0
1759877105.2524977,hdg_acc,0
1759877105.2524977,yaw,0
1759877105.4564018,time_usec,54963000
1759877105.4564018,fix_type,6
1759877105.4564018,lat,-353633245
1759877105.4564018,lon,1491652241
1759877105.4564018,alt,100
1759877105.4564018,eph,121
1759877105.4564018,epv,200
1759877105.4564018,vel,0
1759877105.4564018,cog,0
1759877105.4564018,satellites_visible,10
1759877105.4564018,alt_ellipsoid,100
1759877105.4564018,h_acc,300
1759877105.4564018,v_acc,300
1759877105.4564018,vel_acc,0
1759877105.4564018,hdg_acc,0
1759877105.4564018,yaw,0
1759877105.6547403,time_usec,55163000
1759877105.6547403,fix_type,6
1759877105.6547403,lat,-353633245
1759877105.6547403,lon,1491652241
1759877105.6547403,alt,100
1759877105.6547403,eph,121
1759877105.6547403,epv,200
1759877105.6547403,vel,0
1759877105.6547403,cog,0
1759877105.6547403,satellites_visible,10
1759877105.6547403,alt_ellipsoid,100
1759877105.6547403,h_acc,300
1759877105.6547403,v_acc,300
1759877105.6547403,vel_acc,0
1759877105.6547403,hdg_acc,0
1759877105.6547403,yaw,0
1759877105.853303,time_usec,55363000
1759877105.853303,fix_type,6
1759877105.853303,lat,-353633245
1759877105.853303,lon,1491652241
1759877105.853303,alt,100
1759877105.853303,eph,121
1759877105.853303,epv,200
1759877105.853303,vel,0
1759877105.853303,cog,0
1759877105.853303,satellites_visible,10
1759877105.853303,alt_ellipsoid,100
1759877105.853303,h_acc,300
1759877105.853303,v_acc,300
1759877105.853303,vel_acc,0
1759877105.853303,hdg_acc,0
1759877105.853303,yaw,0
1759877106.0570695,time_usec,55563000
1759877106.0570695,fix_type,6
1759877106.0570695,lat,-353633245
1759877106.0570695,lon,1491652241
1759877106.0570695,alt,100
1759877106.0570695,eph,121
1759877106.0570695,epv,200
1759877106.0570695,vel,0
1759877106.0570695,cog,0
1759877106.0570695,satellites_visible,10
1759877106.0570695,alt_ellipsoid,100
1759877106.0570695,h_acc,300
1759877106.0570695,v_acc,300
1759877106.0570695,vel_acc,0
1759877106.0570695,hdg_acc,0
1759877106.0570695,yaw,0
1759877106.2554388,time_usec,55763000
1759877106.2554388,fix_type,6
1759877106.2554388,lat,-353633245
1759877106.2554388,lon,1491652241
1759877106.2554388,alt,100
1759877106.2554388,eph,121
1759877106.2554388,epv,200
1759877106.2554388,vel,0
1759877106.2554388,cog,0
1759877106.2554388,satellites_visible,10
1759877106.2554388,alt_ellipsoid,100
1759877106.2554388,h_acc,300
1759877106.2554388,v_acc,300
1759877106.2554388,vel_acc,0
1759877106.2554388,hdg_acc,0
1759877106.2554388,yaw,0
1759877106.4536767,time_usec,55963000
1759877106.4536767,fix_type,6
1759877106.4536767,lat,-353633245
1759877106.4536767,lon,1491652241
1759877106.4536767,alt,100
1759877106.4536767,eph,121
1759877106.4536767,epv,200
1759877106.4536767,vel,0
1759877106.4536767,cog,0
1759877106.4536767,satellites_visible,10
1759877106.4536767,alt_ellipsoid,100
1759877106.4536767,h_acc,300
1759877106.4536767,v_acc,300
1759877106.4536767,vel_acc,0
1759877106.4536767,hdg_acc,0
1759877106.4536767,yaw,0
1759877106.6520524,time_usec,56163000
1759877106.6520524,fix_type,6
1759877106.6520524,lat,-353633245
1759877106.6520524,lon,1491652241
1759877106.6520524,alt,100
1759877106.6520524,eph,121
1759877106.6520524,epv,200
1759877106.6520524,vel,0
1759877106.6520524,cog,0
1759877106.6520524,satellites_visible,10
1759877106.6520524,alt_ellipsoid,100
1759877106.6520524,h_acc,300
1759877106.6520524,v_acc,300
1759877106.6520524,vel_acc,0
1759877106.6520524,hdg_acc,0
1759877106.6520524,yaw,0
1759877106.8558693,time_usec,56363000
1759877106.8558693,fix_type,6
1759877106.8558693,lat,-353633245
1759877106.8558693,lon,1491652241
1759877106.8558693,alt,100
1759877106.8558693,eph,121
1759877106.8558693,epv,200
1759877106.8558693,vel,0
1759877106.8558693,cog,0
1759877106.8558693,satellites_visible,10
1759877106.8558693,alt_ellipsoid,100
1759877106.8558693,h_acc,300
1759877106.8558693,v_acc,300
1759877106.8558693,vel_acc,0
1759877106.8558693,hdg_acc,0
1759877106.8558693,yaw,0
1759877107.054408,time_usec,56563000
1759877107.054408,fix_type,6
1759877107.054408,lat,-353633245
1759877107.054408,lon,1491652241
1759877107.054408,alt,100
1759877107.054408,eph,121
1759877107.054408,epv,200
1759877107.054408,vel,0
1759877107.054408,cog,0
1759877107.054408,satellites_visible,10
1759877107.054408,alt_ellipsoid,100
1759877107.054408,h_acc,300
1759877107.054408,v_acc,300
1759877107.054408,vel_acc,0
1759877107.054408,hdg_acc,0
1759877107.054408,yaw,0
1759877107.252545,time_usec,56763000
1759877107.252545,fix_type,6
1759877107.252545,lat,-353633245
1759877107.252545,lon,1491652241
1759877107.252545,alt,100
1759877107.252545,eph,121
1759877107.252545,epv,200
1759877107.252545,vel,0
1759877107.252545,cog,0
1759877107.252545,satellites_visible,10
1759877107.252545,alt_ellipsoid,100
1759877107.252545,h_acc,300
1759877107.252545,v_acc,300
1759877107.252545,vel_acc,0
1759877107.252545,hdg_acc,0
1759877107.252545,yaw,0
1759877107.4566405,time_usec,56963000
1759877107.4566405,fix_type,6
1759877107.4566405,lat,-353633245
1759877107.4566405,lon,1491652241
1759877107.4566405,alt,100
1759877107.4566405,eph,121
1759877107.4566405,epv,200
1759877107.4566405,vel,0
1759877107.4566405,cog,0
1759877107.4566405,satellites_visible,10
1759877107.4566405,alt_ellipsoid,100
1759877107.4566405,h_acc,300
1759877107.4566405,v_acc,300
1759877107.4566405,vel_acc,0
1759877107.4566405,hdg_acc,0
1759877107.4566405,yaw,0
1759877107.6549773,time_usec,57163000
1759877107.6549773,fix_type,6
1759877107.6549773,lat,-353633245
1759877107.6549773,lon,1491652241
1759877107.6549773,alt,100
1759877107.6549773,eph,121
1759877107.6549773,epv,200
1759877107.6549773,vel,0
1759877107.6549773,cog,0
1759877107.6549773,satellites_visible,10
1759877107.6549773,alt_ellipsoid,100
1759877107.6549773,h_acc,300
1759877107.6549773,v_acc,300
1759877107.6549773,vel_acc,0
1759877107.6549773,hdg_acc,0
1759877107.6549773,yaw,0
1759877107.8531823,time_usec,57363000
1759877107.8531823,fix_type,6
1759877107.8531823,lat,-353633245
1759877107.8531823,lon,1491652241
1759877107.8531823,alt,100
1759877107.8531823,eph,121
1759877107.8531823,epv,200
1759877107.8531823,vel,0
1759877107.8531823,cog,0
1759877107.8531823,satellites_visible,10
1759877107.8531823,alt_ellipsoid,100
1759877107.8531823,h_acc,300
1759877107.8531823,v_acc,300
1759877107.8531823,vel_acc,0
1759877107.8531823,hdg_acc,0
1759877107.8531823,yaw,0
1759877108.0570517,time_usec,57563000
1759877108.0570517,fix_type,6
1759877108.0570517,lat,-353633245
1759877108.0570517,lon,1491652241
1759877108.0570517,alt,100
1759877108.0570517,eph,121
1759877108.0570517,epv,200
1759877108.0570517,vel,0
1759877108.0570517,cog,0
1759877108.0570517,satellites_visible,10
1759877108.0570517,alt_ellipsoid,100
1759877108.0570517,h_acc,300
1759877108.0570517,v_acc,300
1759877108.0570517,vel_acc,0
1759877108.0570517,hdg_acc,0
1759877108.0570517,yaw,0
1759877108.2557926,time_usec,57763000
1759877108.2557926,fix_type,6
1759877108.2557926,lat,-353633245
1759877108.2557926,lon,1491652241
1759877108.2557926,alt,100
1759877108.2557926,eph,121
1759877108.2557926,epv,200
1759877108.2557926,vel,0
1759877108.2557926,cog,0
1759877108.2557926,satellites_visible,10
1759877108.2557926,alt_ellipsoid,100
1759877108.2557926,h_acc,300
1759877108.2557926,v_acc,300
1759877108.2557926,vel_acc,0
1759877108.2557926,hdg_acc,0
1759877108.2557926,yaw,0
1759877108.4542775,time_usec,57963000
1759877108.4542775,fix_type,6
1759877108.4542775,lat,-353633245
1759877108.4542775,lon,1491652241
1759877108.4542775,alt,100
1759877108.4542775,eph,121
1759877108.4542775,epv,200
1759877108.4542775,vel,0
1759877108.4542775,cog,0
1759877108.4542775,satellites_visible,10
1759877108.4542775,alt_ellipsoid,100
1759877108.4542775,h_acc,300
1759877108.4542775,v_acc,300
1759877108.4542775,vel_acc,0
1759877108.4542775,hdg_acc,0
1759877108.4542775,yaw,0
1759877108.6521556,time_usec,58163000
1759877108.6521556,fix_type,6
1759877108.6521556,lat,-353633245
1759877108.6521556,lon,1491652241
1759877108.6521556,alt,100
1759877108.6521556,eph,121
1759877108.6521556,epv,200
1759877108.6521556,vel,0
1759877108.6521556,cog,0
1759877108.6521556,satellites_visible,10
1759877108.6521556,alt_ellipsoid,100
1759877108.6521556,h_acc,300
1759877108.6521556,v_acc,300
1759877108.6521556,vel_acc,0
1759877108.6521556,hdg_acc,0
1759877108.6521556,yaw,0
1759877108.8563294,time_usec,58363000
1759877108.8563294,fix_type,6
1759877108.8563294,lat,-353633245
1759877108.8563294,lon,1491652241
1759877108.8563294,alt,100
1759877108.8563294,eph,121
1759877108.8563294,epv,200
1759877108.8563294,vel,0
1759877108.8563294,cog,0
1759877108.8563294,satellites_visible,10
1759877108.8563294,alt_ellipsoid,100
1759877108.8563294,h_acc,300
1759877108.8563294,v_acc,300
1759877108.8563294,vel_acc,0
1759877108.8563294,hdg_acc,0
1759877108.8563294,yaw,0
1759877109.0544503,time_usec,58563000
1759877109.0544503,fix_type,6
1759877109.0544503,lat,-353633245
1759877109.0544503,lon,1491652241
1759877109.0544503,alt,100
1759877109.0544503,eph,121
1759877109.0544503,epv,200
1759877109.0544503,vel,0
1759877109.0544503,cog,0
1759877109.0544503,satellites_visible,10
1759877109.0544503,alt_ellipsoid,100
1759877109.0544503,h_acc,300
1759877109.0544503,v_acc,300
1759877109.0544503,vel_acc,0
1759877109.0544503,hdg_acc,0
1759877109.0544503,yaw,0
1759877109.2527328,time_usec,58763000
1759877109.2527328,fix_type,6
1759877109.2527328,lat,-353633245
1759877109.2527328,lon,1491652241
1759877109.2527328,alt,100
1759877109.2527328,eph,121
1759877109.2527328,epv,200
1759877109.2527328,vel,0
1759877109.2527328,cog,0
1759877109.2527328,satellites_visible,10
1759877109.2527328,alt_ellipsoid,100
1759877109.2527328,h_acc,300
1759877109.2527328,v_acc,300
1759877109.2527328,vel_acc,0
1759877109.2527328,hdg_acc,0
1759877109.2527328,yaw,0
1759877109.4567225,time_usec,58963000
1759877109.4567225,fix_type,6
1759877109.4567225,lat,-353633245
1759877109.4567225,lon,1491652241
1759877109.4567225,alt,100
1759877109.4567225,eph,121
1759877109.4567225,epv,200
1759877109.4567225,vel,0
1759877109.4567225,cog,0
1759877109.4567225,satellites_visible,10
1759877109.4567225,alt_ellipsoid,100
1759877109.4567225,h_acc,300
1759877109.4567225,v_acc,300
1759877109.4567225,vel_acc,0
1759877109.4567225,hdg_acc,0
1759877109.4567225,yaw,0
1759877109.655125,time_usec,59163000
1759877109.655125,fix_type,6
1759877109.655125,lat,-353633245
1759877109.655125,lon,1491652241
1759877109.655125,alt,100
1759877109.655125,eph,121
1759877109.655125,epv,200
1759877109.655125,vel,0
1759877109.655125,cog,0
1759877109.655125,satellites_visible,10
1759877109.655125,alt_ellipsoid,100
1759877109.655125,h_acc,300
1759877109.655125,v_acc,300
1759877109.655125,vel_acc,0
1759877109.655125,hdg_acc,0
1759877109.655125,yaw,0
1759877109.8533676,time_usec,59363000
1759877109.8533676,fix_type,6
1759877109.8533676,lat,-353633245
1759877109.8533676,lon,1491652241
1759877109.8533676,alt,100
1759877109.8533676,eph,121
1759877109.8533676,epv,200
1759877109.8533676,vel,0
1759877109.8533676,cog,0
1759877109.8533676,satellites_visible,10
1759877109.8533676,alt_ellipsoid,100
1759877109.8533676,h_acc,300
1759877109.8533676,v_acc,300
1759877109.8533676,vel_acc,0
1759877109.8533676,hdg_acc,0
1759877109.8533676,yaw,0
1759877110.0574586,time_usec,59563000
1759877110.0574586,fix_type,6
1759877110.0574586,lat,-353633245
1759877110.0574586,lon,1491652241
1759877110.0574586,alt,100
1759877110.0574586,eph,121
1759877110.0574586,epv,200
1759877110.0574586,vel,0
1759877110.0574586,cog,0
1759877110.0574586,satellites_visible,10
1759877110.0574586,alt_ellipsoid,100
1759877110.0574586,h_acc,300
1759877110.0574586,v_acc,300
1759877110.0574586,vel_acc,0
1759877110.0574586,hdg_acc,0
1759877110.0574586,yaw,0
1759877110.2556822,time_usec,59763000
1759877110.2556822,fix_type,6
1759877110.2556822,lat,-353633245
1759877110.2556822,lon,1491652241
1759877110.2556822,alt,100
1759877110.2556822,eph,121
1759877110.2556822,epv,200
1759877110.2556822,vel,0
1759877110.2556822,cog,0
1759877110.2556822,satellites_visible,10
1759877110.2556822,alt_ellipsoid,100
1759877110.2556822,h_acc,300
1759877110.2556822,v_acc,300
1759877110.2556822,vel_acc,0
1759877110.2556822,hdg_acc,0
1759877110.2556822,yaw,0
1759877110.4540062,time_usec,59963000
1759877110.4540062,fix_type,6
1759877110.4540062,lat,-353633245
1759877110.4540062,lon,1491652241
1759877110.4540062,alt,100
1759877110.4540062,eph,121
1759877110.4540062,epv,200
1759877110.4540062,vel,0
1759877110.4540062,cog,0
1759877110.4540062,satellites_visible,10
1759877110.4540062,alt_ellipsoid,100
1759877110.4540062,h_acc,300
1759877110.4540062,v_acc,300
1759877110.4540062,vel_acc,0
1759877110.4540062,hdg_acc,0
1759877110.4540062,yaw,0
1759877110.6523335,time_usec,60163000
1759877110.6523335,fix_type,6
1759877110.6523335,lat,-353633245
1759877110.6523335,lon,1491652241
1759877110.6523335,alt,100
1759877110.6523335,eph,121
1759877110.6523335,epv,200
1759877110.6523335,vel,0
1759877110.6523335,cog,0
1759877110.6523335,satellites_visible,10
1759877110.6523335,alt_ellipsoid,100
1759877110.6523335,h_acc,300
1759877110.6523335,v_acc,300
1759877110.6523335,vel_acc,0
1759877110.6523335,hdg_acc,0
1759877110.6523335,yaw,0
1759877110.8563762,time_usec,60363000
1759877110.8563762,fix_type,6
1759877110.8563762,lat,-353633245
1759877110.8563762,lon,1491652241
1759877110.8563762,alt,100
1759877110.8563762,eph,121
1759877110.8563762,epv,200
1759877110.8563762,vel,0
1759877110.8563762,cog,0
1759877110.8563762,satellites_visible,10
1759877110.8563762,alt_ellipsoid,100
1759877110.8563762,h_acc,300
1759877110.8563762,v_acc,300
1759877110.8563762,vel_acc,0
1759877110.8563762,hdg_acc,0
1759877110.8563762,yaw,0
1759877111.0545993,time_usec,60563000
1759877111.0545993,fix_type,6
1759877111.0545993,lat,-353633245
1759877111.0545993,lon,1491652241
1759877111.0545993,alt,100
1759877111.0545993,eph,121
1759877111.0545993,epv,200
1759877111.0545993,vel,0
1759877111.0545993,cog,0
1759877111.0545993,satellites_visible,10
1759877111.0545993,alt_ellipsoid,100
1759877111.0545993,h_acc,300
1759877111.0545993,v_acc,300
1759877111.0545993,vel_acc,0
1759877111.0545993,hdg_acc,0
1759877111.0545993,yaw,0
1759877111.2529488,time_usec,60763000
1759877111.2529488,fix_type,6
1759877111.2529488,lat,-353633245
1759877111.2529488,lon,1491652241
1759877111.2529488,alt,100
1759877111.2529488,eph,121
1759877111.2529488,epv,200
1759877111.2529488,vel,0
1759877111.2529488,cog,0
1759877111.2529488,satellites_visible,10
1759877111.2529488,alt_ellipsoid,100
1759877111.2529488,h_acc,300
1759877111.2529488,v_acc,300
1759877111.2529488,vel_acc,0
1759877111.2529488,hdg_acc,0
1759877111.2529488,yaw,0
1759877111.45695,time_usec,60963000
1759877111.45695,fix_type,6
1759877111.45695,lat,-353633245
1759877111.45695,lon,1491652241
1759877111.45695,alt,100
1759877111.45695,eph,121
1759877111.45695,epv,200
1759877111.45695,vel,0
1759877111.45695,cog,0
1759877111.45695,satellites_visible,10
1759877111.45695,alt_ellipsoid,100
1759877111.45695,h_acc,300
1759877111.45695,v_acc,300
1759877111.45695,vel_acc,0
1759877111.45695,hdg_acc,0
1759877111.45695,yaw,0
1759877111.6552594,time_usec,61163000
1759877111.6552594,fix_type,6
1759877111.6552594,lat,-353633245
1759877111.6552594,lon,1491652241
1759877111.6552594,alt,100
1759877111.6552594,eph,121
1759877111.6552594,epv,200
1759877111.6552594,vel,0
1759877111.6552594,cog,0
1759877111.6552594,satellites_visible,10
1759877111.6552594,alt_ellipsoid,100
1759877111.6552594,h_acc,300
1759877111.6552594,v_acc,300
1759877111.6552594,vel_acc,0
1759877111.6552594,hdg_acc,0
1759877111.6552594,yaw,0
1759877111.8535664,time_usec,61363000
1759877111.8535664,fix_type,6
1759877111.8535664,lat,-353633245
1759877111.8535664,lon,1491652241
1759877111.8535664,alt,100
1759877111.8535664,eph,121
1759877111.8535664,epv,200
1759877111.8535664,vel,0
1759877111.8535664,cog,0
1759877111.8535664,satellites_visible,10
1759877111.8535664,alt_ellipsoid,100
1759877111.8535664,h_acc,300
1759877111.8535664,v_acc,300
1759877111.8535664,vel_acc,0
1759877111.8535664,hdg_acc,0
1759877111.8535664,yaw,0
1759877112.0575032,time_usec,61563000
1759877112.0575032,fix_type,6
1759877112.0575032,lat,-353633245
1759877112.0575032,lon,1491652241
1759877112.0575032,alt,100
1759877112.0575032,eph,121
1759877112.0575032,epv,200
1759877112.0575032,vel,0
1759877112.0575032,cog,0
1759877112.0575032,satellites_visible,10
1759877112.0575032,alt_ellipsoid,100
1759877112.0575032,h_acc,300
1759877112.0575032,v_acc,300
1759877112.0575032,vel_acc,0
1759877112.0575032,hdg_acc,0
1759877112.0575032,yaw,0
1759877112.2559073,time_usec,61763000
1759877112.2559073,fix_type,6
1759877112.2559073,lat,-353633245
1759877112.2559073,lon,1491652241
1759877112.2559073,alt,100
1759877112.2559073,eph,121
1759877112.2559073,epv,200
1759877112.2559073,vel,0
1759877112.2559073,cog,0
1759877112.2559073,satellites_visible,10
1759877112.2559073,alt_ellipsoid,100
1759877112.2559073,h_acc,300
1759877112.2559073,v_acc,300
1759877112.2559073,vel_acc,0
1759877112.2559073,hdg_acc,0
1759877112.2559073,yaw,0
1759877112.4542212,time_usec,61963000
1759877112.4542212,fix_type,6
1759877112.4542212,lat,-353633245
1759877112.4542212,lon,1491652241
1759877112.4542212,alt,100
1759877112.4542212,eph,121
1759877112.4542212,epv,200
1759877112.4542212,vel,0
1759877112.4542212,cog,0
1759877112.4542212,satellites_visible,10
1759877112.4542212,alt_ellipsoid,100
1759877112.4542212,h_acc,300
1759877112.4542212,v_acc,300
1759877112.4542212,vel_acc,0
1759877112.4542212,hdg_acc,0
1759877112.4542212,yaw,0
1759877112.6525931,time_usec,62163000
1759877112.6525931,fix_type,6
1759877112.6525931,lat,-353633245
1759877112.6525931,lon,1491652241
1759877112.6525931,alt,100
1759877112.6525931,eph,121
1759877112.6525931,epv,200
1759877112.6525931,vel,0
1759877112.6525931,cog,0
1759877112.6525931,satellites_visible,10
1759877112.6525931,alt_ellipsoid,100
1759877112.6525931,h_acc,300
1759877112.6525931,v_acc,300
1759877112.6525931,vel_acc,0
1759877112.6525931,hdg_acc,0
1759877112.6525931,yaw,0
1759877112.8565788,time_usec,62363000
1759877112.8565788,fix_type,6
1759877112.8565788,lat,-353633245
1759877112.8565788,lon,1491652241
1759877112.8565788,alt,100
1759877112.8565788,eph,121
1759877112.8565788,epv,200
1759877112.8565788,vel,0
1759877112.8565788,cog,0
1759877112.8565788,satellites_visible,10
1759877112.8565788,alt_ellipsoid,100
1759877112.8565788,h_acc,300
1759877112.8565788,v_acc,300
1759877112.8565788,vel_acc,0
1759877112.8565788,hdg_acc,0
1759877112.8565788,yaw,0
1759877113.0548973,time_usec,62563000
1759877113.0548973,fix_type,6
1759877113.0548973,lat,-353633245
1759877113.0548973,lon,1491652241
1759877113.0548973,alt,100
1759877113.0548973,eph,121
1759877113.0548973,epv,200
1759877113.0548973,vel,0
1759877113.0548973,cog,0
1759877113.0548973,satellites_visible,10
1759877113.0548973,alt_ellipsoid,100
1759877113.0548973,h_acc,300
1759877113.0548973,v_acc,300
1759877113.0548973,vel_acc,0
1759877113.0548973,hdg_acc,0
1759877113.0548973,yaw,0
1759877113.2532513,time_usec,62763000
1759877113.2532513,fix_type,6
1759877113.2532513,lat,-353633245
1759877113.2532513,lon,1491652241
1759877113.2532513,alt,100
1759877113.2532513,eph,121
1759877113.2532513,epv,200
1759877113.2532513,vel,0
1759877113.2532513,cog,0
1759877113.2532513,satellites_visible,10
1759877113.2532513,alt_ellipsoid,100
1759877113.2532513,h_acc,300
1759877113.2532513,v_acc,300
1759877113.2532513,vel_acc,0
1759877113.2532513,hdg_acc,0
1759877113.2532513,yaw,0
1759877113.4572399,time_usec,62963000
1759877113.4572399,fix_type,6
1759877113.4572399,lat,-353633245
1759877113.4572399,lon,1491652241
1759877113.4572399,alt,100
1759877113.4572399,eph,121
1759877113.4572399,epv,200
1759877113.4572399,vel,0
1759877113.4572399,cog,0
1759877113.4572399,satellites_visible,10
1759877113.4572399,alt_ellipsoid,100
1759877113.4572399,h_acc,300
1759877113.4572399,v_acc,300
1759877113.4572399,vel_acc,0
1759877113.4572399,hdg_acc,0
1759877113.4572399,yaw,0
1759877113.6555483,time_usec,63163000
1759877113.6555483,fix_type,6
1759877113.6555483,lat,-353633245
1759877113.6555483,lon,1491652241
1759877113.6555483,alt,100
1759877113.6555483,eph,121
1759877113.6555483,epv,200
1759877113.6555483,vel,0
1759877113.6555483,cog,0
1759877113.6555483,satellites_visible,10
1759877113.6555483,alt_ellipsoid,100
1759877113.6555483,h_acc,300
1759877113.6555483,v_acc,300
1759877113.6555483,vel_acc,0
1759877113.6555483,hdg_acc,0
1759877113.6555483,yaw,0
1759877113.8538687,time_usec,63363000
1759877113.8538687,fix_type,6
1759877113.8538687,lat,-353633245
1759877113.8538687,lon,1491652241
1759877113.8538687,alt,100
1759877113.8538687,eph,121
1759877113.8538687,epv,200
1759877113.8538687,vel,0
1759877113.8538687,cog,0
1759877113.8538687,satellites_visible,10
1759877113.8538687,alt_ellipsoid,100
1759877113.8538687,h_acc,300
1759877113.8538687,v_acc,300
1759877113.8538687,vel_acc,0
1759877113.8538687,hdg_acc,0
1759877113.8538687,yaw,0
1759877114.0578022,time_usec,63563000
1759877114.0578022,fix_type,6
1759877114.0578022,lat,-353633245
1759877114.0578022,lon,1491652241
1759877114.0578022,alt,100
1759877114.0578022,eph,121
1759877114.0578022,epv,200
1759877114.0578022,vel,0
1759877114.0578022,cog,0
1759877114.0578022,satellites_visible,10
1759877114.0578022,alt_ellipsoid,100
1759877114.0578022,h_acc,300
1759877114.0578022,v_acc,300
1759877114.0578022,vel_acc,0
1759877114.0578022,hdg_acc,0
1759877114.0578022,yaw,0
1759877114.2561839,time_usec,63763000
1759877114.2561839,fix_type,6
1759877114.2561839,lat,-353633245
1759877114.2561839,lon,1491652241
1759877114.2561839,alt,100
1759877114.2561839,eph,121
1759877114.2561839,epv,200
1759877114.2561839,vel,0
1759877114.2561839,cog,0
1759877114.2561839,satellites_visible,10
1759877114.2561839,alt_ellipsoid,100
1759877114.2561839,h_acc,300
1759877114.2561839,v_acc,300
1759877114.2561839,vel_acc,0
1759877114.2561839,hdg_acc,0
1759877114.2561839,yaw,0
1759877114.4545357,time_usec,63963000
1759877114.4545357,fix_type,6
1759877114.4545357,lat,-353633245
1759877114.4545357,lon,1491652241
1759877114.4545357,alt,100
1759877114.4545357,eph,121
1759877114.4545357,epv,200
1759877114.4545357,vel,0
1759877114.4545357,cog,0
1759877114.4545357,satellites_visible,10
1759877114.4545357,alt_ellipsoid,100
1759877114.4545357,h_acc,300
1759877114.4545357,v_acc,300
1759877114.4545357,vel_acc,0
1759877114.4545357,hdg_acc,0
1759877114.4545357,yaw,0
1759877114.6528308,time_usec,64163000
1759877114.6528308,fix_type,6
1759877114.6528308,lat,-353633245
1759877114.6528308,lon,1491652241
1759877114.6528308,alt,100
1759877114.6528308,eph,121
1759877114.6528308,epv,200
1759877114.6528308,vel,0
1759877114.6528308,cog,0
1759877114.6528308,satellites_visible,10
1759877114.6528308,alt_ellipsoid,100
1759877114.6528308,h_acc,300
1759877114.6528308,v_acc,300
1759877114.6528308,vel_acc,0
1759877114.6528308,hdg_acc,0
1759877114.6528308,yaw,0
1759877114.8568122,time_usec,64363000
1759877114.8568122,fix_type,6
1759877114.8568122,lat,-353633245
1759877114.8568122,lon,1491652241
1759877114.8568122,alt,100
1759877114.8568122,eph,121
1759877114.8568122,epv,200
1759877114.8568122,vel,0
1759877114.8568122,cog,0
1759877114.8568122,satellites_visible,10
1759877114.8568122,alt_ellipsoid,100
1759877114.8568122,h_acc,300
1759877114.8568122,v_acc,300
1759877114.8568122,vel_acc,0
1759877114.8568122,hdg_acc,0
1759877114.8568122,yaw,0
1759877115.055153,time_usec,64563000
1759877115.055153,fix_type,6
1759877115.055153,lat,-353633245
1759877115.055153,lon,1491652241
1759877115.055153,alt,100
1759877115.055153,eph,121
1759877115.055153,epv,200
1759877115.055153,vel,0
1759877115.055153,cog,0
1759877115.055153,satellites_visible,10
1759877115.055153,alt_ellipsoid,100
1759877115.055153,h_acc,300
1759877115.055153,v_acc,300
1759877115.055153,vel_acc,0
1759877115.055153,hdg_acc,0
1759877115.055153,yaw,0
1759877115.2534711,time_usec,64763000
1759877115.2534711,fix_type,6
1759877115.2534711,lat,-353633245
1759877115.2534711,lon,1491652241
1759877115.2534711,alt,100
1759877115.2534711,eph,121
1759877115.2534711,epv,200
1759877115.2534711,vel,0
1759877115.2534711,cog,0
1759877115.2534711,satellites_visible,10
1759877115.2534711,alt_ellipsoid,100
1759877115.2534711,h_acc,300
1759877115.2534711,v_acc,300
1759877115.2534711,vel_acc,0
1759877115.2534711,hdg_acc,0
1759877115.2534711,yaw,0
1759877115.4575248,time_usec,64963000
1759877115.4575248,fix_type,6
1759877115.4575248,lat,-353633245
1759877115.4575248,lon,1491652241
1759877115.4575248,alt,100
1759877115.4575248,eph,121
1759877115.4575248,epv,200
1759877115.4575248,vel,0
1759877115.4575248,cog,0
1759877115.4575248,satellites_visible,10
1759877115.4575248,alt_ellipsoid,100
1759877115.4575248,h_acc,300
1759877115.4575248,v_acc,300
1759877115.4575248,vel_acc,0
1759877115.4575248,hdg_acc,0
1759877115.4575248,yaw,0
1759877115.6557887,time_usec,65163000
1759877115.6557887,fix_type,6
1759877115.6557887,lat,-353633245
1759877115.6557887,lon,1491652241
1759877115.6557887,alt,100
1759877115.6557887,eph,121
1759877115.6557887,epv,200
1759877115.6557887,vel,0
1759877115.6557887,cog,0
1759877115.6557887,satellites_visible,10
1759877115.6557887,alt_ellipsoid,100
1759877115.6557887,h_acc,300
1759877115.6557887,v_acc,300
1759877115.6557887,vel_acc,0
1759877115.6557887,hdg_acc,0
1759877115.6557887,yaw,0
1759877115.8544118,time_usec,65363000
1759877115.8544118,fix_type,6
1759877115.8544118,lat,-353633245
1759877115.8544118,lon,1491652241
1759877115.8544118,alt,100
1759877115.8544118,eph,121
1759877115.8544118,epv,200
1759877115.8544118,vel,0
1759877115.8544118,cog,0
1759877115.8544118,satellites_visible,10
1759877115.8544118,alt_ellipsoid,100
1759877115.8544118,h_acc,300
1759877115.8544118,v_acc,300
1759877115.8544118,vel_acc,0
1759877115.8544118,hdg_acc,0
1759877115.8544118,yaw,0
1759877116.0581937,time_usec,65563000
1759877116.0581937,fix_type,6
1759877116.0581937,lat,-353633245
1759877116.0581937,lon,1491652241
1759877116.0581937,alt,100
1759877116.0581937,eph,121
1759877116.0581937,epv,200
1759877116.0581937,vel,0
1759877116.0581937,cog,0
1759877116.0581937,satellites_visible,10
1759877116.0581937,alt_ellipsoid,100
1759877116.0581937,h_acc,300
1759877116.0581937,v_acc,300
1759877116.0581937,vel_acc,0
1759877116.0581937,hdg_acc,0
1759877116.0581937,yaw,0
1759877116.2564147,time_usec,65763000
1759877116.2564147,fix_type,6
1759877116.2564147,lat,-353633245
1759877116.2564147,lon,1491652241
1759877116.2564147,alt,100
1759877116.2564147,eph,121
1759877116.2564147,epv,200
1759877116.2564147,vel,0
1759877116.2564147,cog,0
1759877116.2564147,satellites_visible,10
1759877116.2564147,alt_ellipsoid,100
1759877116.2564147,h_acc,300
1759877116.2564147,v_acc,300
1759877116.2564147,vel_acc,0
1759877116.2564147,hdg_acc,0
1759877116.2564147,yaw,0
1759877116.4549203,time_usec,65963000
1759877116.4549203,fix_type,6
1759877116.4549203,lat,-353633245
1759877116.4549203,lon,1491652241
1759877116.4549203,alt,100
1759877116.4549203,eph,121
1759877116.4549203,epv,200
1759877116.4549203,vel,0
1759877116.4549203,cog,0
1759877116.4549203,satellites_visible,10
1759877116.4549203,alt_ellipsoid,100
1759877116.4549203,h_acc,300
1759877116.4549203,v_acc,300
1759877116.4549203,vel_acc,0
1759877116.4549203,hdg_acc,0
1759877116.4549203,yaw,0
1759877116.653045,time_usec,66163000
1759877116.653045,fix_type,6
1759877116.653045,lat,-353633245
1759877116.653045,lon,1491652241
1759877116.653045,alt,100
1759877116.653045,eph,121
1759877116.653045,epv,200
1759877116.653045,vel,0
1759877116.653045,cog,0
1759877116.653045,satellites_visible,10
1759877116.653045,alt_ellipsoid,100
1759877116.653045,h_acc,300
1759877116.653045,v_acc,300
1759877116.653045,vel_acc,0
1759877116.653045,hdg_acc,0
1759877116.653045,yaw,0
1759877116.8569877,time_usec,66363000
1759877116.8569877,fix_type,6
1759877116.8569877,lat,-353633245
1759877116.8569877,lon,1491652241
1759877116.8569877,alt,100
1759877116.8569877,eph,121
1759877116.8569877,epv,200
1759877116.8569877,vel,0
1759877116.8569877,cog,0
1759877116.8569877,satellites_visible,10
1759877116.8569877,alt_ellipsoid,100
1759877116.8569877,h_acc,300
1759877116.8569877,v_acc,300
1759877116.8569877,vel_acc,0
1759877116.8569877,hdg_acc,0
1759877116.8569877,yaw,0
1759877117.0553136,time_usec,66563000
1759877117.0553136,fix_type,6
1759877117.0553136,lat,-353633245
1759877117.0553136,lon,1491652241
1759877117.0553136,alt,100
1759877117.0553136,eph,121
1759877117.0553136,epv,200
1759877117.0553136,vel,0
1759877117.0553136,cog,0
1759877117.0553136,satellites_visible,10
1759877117.0553136,alt_ellipsoid,100
1759877117.0553136,h_acc,300
1759877117.0553136,v_acc,300
1759877117.0553136,vel_acc,0
1759877117.0553136,hdg_acc,0
1759877117.0553136,yaw,0
1759877117.2536447,time_usec,66763000
1759877117.2536447,fix_type,6
1759877117.2536447,lat,-353633245
1759877117.2536447,lon,1491652241
1759877117.2536447,alt,100
1759877117.2536447,eph,121
1759877117.2536447,epv,200
1759877117.2536447,vel,0
1759877117.2536447,cog,0
1759877117.2536447,satellites_visible,10
1759877117.2536447,alt_ellipsoid,100
1759877117.2536447,h_acc,300
1759877117.2536447,v_acc,300
1759877117.2536447,vel_acc,0
1759877117.2536447,hdg_acc,0
1759877117.2536447,yaw,0
1759877117.4576573,time_usec,66963000
1759877117.4576573,fix_type,6
1759877117.4576573,lat,-353633245
1759877117.4576573,lon,1491652241
1759877117.4576573,alt,100
1759877117.4576573,eph,121
1759877117.4576573,epv,200
1759877117.4576573,vel,0
1759877117.4576573,cog,0
1759877117.4576573,satellites_visible,10
1759877117.4576573,alt_ellipsoid,100
1759877117.4576573,h_acc,300
1759877117.4576573,v_acc,300
1759877117.4576573,vel_acc,0
1759877117.4576573,hdg_acc,0
1759877117.4576573,yaw,0
1759877117.6560383,time_usec,67163000
1759877117.6560383,fix_type,6
1759877117.6560383,lat,-353633245
1759877117.6560383,lon,1491652241
1759877117.6560383,alt,100
1759877117.6560383,eph,121
1759877117.6560383,epv,200
1759877117.6560383,vel,0
1759877117.6560383,cog,0
1759877117.6560383,satellites_visible,10
1759877117.6560383,alt_ellipsoid,100
1759877117.6560383,h_acc,300
1759877117.6560383,v_acc,300
1759877117.6560383,vel_acc,0
1759877117.6560383,hdg_acc,0
1759877117.6560383,yaw,0
1759877117.8542871,time_usec,67363000
1759877117.8542871,fix_type,6
1759877117.8542871,lat,-353633245
1759877117.8542871,lon,1491652241
1759877117.8542871,alt,100
1759877117.8542871,eph,121
1759877117.8542871,epv,200
1759877117.8542871,vel,0
1759877117.8542871,cog,0
1759877117.8542871,satellites_visible,10
1759877117.8542871,alt_ellipsoid,100
1759877117.8542871,h_acc,300
1759877117.8542871,v_acc,300
1759877117.8542871,vel_acc,0
1759877117.8542871,hdg_acc,0
1759877117.8542871,yaw,0
1759877118.0582995,time_usec,67563000
1759877118.0582995,fix_type,6
1759877118.0582995,lat,-353633245
1759877118.0582995,lon,1491652241
1759877118.0582995,alt,100
1759877118.0582995,eph,121
1759877118.0582995,epv,200
1759877118.0582995,vel,0
1759877118.0582995,cog,0
1759877118.0582995,satellites_visible,10
1759877118.0582995,alt_ellipsoid,100
1759877118.0582995,h_acc,300
1759877118.0582995,v_acc,300
1759877118.0582995,vel_acc,0
1759877118.0582995,hdg_acc,0
1759877118.0582995,yaw,0
1759877118.256583,time_usec,67763000
1759877118.256583,fix_type,6
1759877118.256583,lat,-353633245
1759877118.256583,lon,1491652241
1759877118.256583,alt,100
1759877118.256583,eph,121
1759877118.256583,epv,200
1759877118.256583,vel,0
1759877118.256583,cog,0
1759877118.256583,satellites_visible,10
1759877118.256583,alt_ellipsoid,100
1759877118.256583,h_acc,300
1759877118.256583,v_acc,300
1759877118.256583,vel_acc,0
1759877118.256583,hdg_acc,0
1759877118.256583,yaw,0
1759877118.4549155,time_usec,67963000
1759877118.4549155,fix_type,6
1759877118.4549155,lat,-353633245
1759877118.4549155,lon,1491652241
1759877118.4549155,alt,100
1759877118.4549155,eph,121
1759877118.4549155,epv,200
1759877118.4549155,vel,0
1759877118.4549155,cog,0
1759877118.4549155,satellites_visible,10
1759877118.4549155,alt_ellipsoid,100
1759877118.4549155,h_acc,300
1759877118.4549155,v_acc,300
1759877118.4549155,vel_acc,0
1759877118.4549155,hdg_acc,0
1759877118.4549155,yaw,0
1759877118.6532285,time_usec,68163000
1759877118.6532285,fix_type,6
1759877118.6532285,lat,-353633245
1759877118.6532285,lon,1491652241
1759877118.6532285,alt,100
1759877118.6532285,eph,121
1759877118.6532285,epv,200
1759877118.6532285,vel,0
1759877118.6532285,cog,0
1759877118.6532285,satellites_visible,10
1759877118.6532285,alt_ellipsoid,100
1759877118.6532285,h_acc,300
1759877118.6532285,v_acc,300
1759877118.6532285,vel_acc,0
1759877118.6532285,hdg_acc,0
1759877118.6532285,yaw,0
1759877118.8573194,time_usec,68363000
1759877118.8573194,fix_type,6
1759877118.8573194,lat,-353633245
1759877118.8573194,lon,1491652241
1759877118.8573194,alt,100
1759877118.8573194,eph,121
1759877118.8573194,epv,200
1759877118.8573194,vel,0
1759877118.8573194,cog,0
1759877118.8573194,satellites_visible,10
1759877118.8573194,alt_ellipsoid,100
1759877118.8573194,h_acc,300
1759877118.8573194,v_acc,300
1759877118.8573194,vel_acc,0
1759877118.8573194,hdg_acc,0
1759877118.8573194,yaw,0
1759877119.0556228,time_usec,68563000
1759877119.0556228,fix_type,6
1759877119.0556228,lat,-353633245
1759877119.0556228,lon,1491652241
1759877119.0556228,alt,100
1759877119.0556228,eph,121
1759877119.0556228,epv,200
1759877119.0556228,vel,0
1759877119.0556228,cog,0
1759877119.0556228,satellites_visible,10
1759877119.0556228,alt_ellipsoid,100
1759877119.0556228,h_acc,300
1759877119.0556228,v_acc,300
1759877119.0556228,vel_acc,0
1759877119.0556228,hdg_acc,0
1759877119.0556228,yaw,0
1759877119.2540832,time_usec,68763000
1759877119.2540832,fix_type,6
1759877119.2540832,lat,-353633245
1759877119.2540832,lon,1491652241
1759877119.2540832,alt,100
1759877119.2540832,eph,121
1759877119.2540832,epv,200
1759877119.2540832,vel,0
1759877119.2540832,cog,0
1759877119.2540832,satellites_visible,10
1759877119.2540832,alt_ellipsoid,100
1759877119.2540832,h_acc,300
1759877119.2540832,v_acc,300
1759877119.2540832,vel_acc,0
1759877119.2540832,hdg_acc,0
1759877119.2540832,yaw,0
1759877119.4578347,time_usec,68963000
1759877119.4578347,fix_type,6
1759877119.4578347,lat,-353633245
1759877119.4578347,lon,1491652241
1759877119.4578347,alt,100
1759877119.4578347,eph,121
1759877119.4578347,epv,200
1759877119.4578347,vel,0
1759877119.4578347,cog,0
1759877119.4578347,satellites_visible,10
1759877119.4578347,alt_ellipsoid,100
1759877119.4578347,h_acc,300
1759877119.4578347,v_acc,300
1759877119.4578347,vel_acc,0
1759877119.4578347,hdg_acc,0
1759877119.4578347,yaw,0
1759877119.6562448,time_usec,69163000
1759877119.6562448,fix_type,6
1759877119.6562448,lat,-353633245
1759877119.6562448,lon,1491652241
1759877119.6562448,alt,100
1759877119.6562448,eph,121
1759877119.6562448,epv,200
1759877119.6562448,vel,0
1759877119.6562448,cog,0
1759877119.6562448,satellites_visible,10
1759877119.6562448,alt_ellipsoid,100
1759877119.6562448,h_acc,300
1759877119.6562448,v_acc,300
1759877119.6562448,vel_acc,0
1759877119.6562448,hdg_acc,0
1759877119.6562448,yaw,0
1759877119.854563,time_usec,69363000
1759877119.854563,fix_type,6
1759877119.854563,lat,-353633245
1759877119.854563,lon,1491652241
1759877119.854563,alt,100
1759877119.854563,eph,121
1759877119.854563,epv,200
1759877119.854563,vel,0
1759877119.854563,cog,0
1759877119.854563,satellites_visible,10
1759877119.854563,alt_ellipsoid,100
1759877119.854563,h_acc,300
1759877119.854563,v_acc,300
1759877119.854563,vel_acc,0
1759877119.854563,hdg_acc,0
1759877119.854563,yaw,0
1759877120.0585897,time_usec,69563000
1759877120.0585897,fix_type,6
1759877120.0585897,lat,-353633245
1759877120.0585897,lon,1491652241
1759877120.0585897,alt,100
1759877120.0585897,eph,121
1759877120.0585897,epv,200
1759877120.0585897,vel,0
1759877120.0585897,cog,0
1759877120.0585897,satellites_visible,10
1759877120.0585897,alt_ellipsoid,100
1759877120.0585897,h_acc,300
1759877120.0585897,v_acc,300
1759877120.0585897,vel_acc,0
1759877120.0585897,hdg_acc,0
1759877120.0585897,yaw,0
1759877120.2570481,time_usec,69763000
1759877120.2570481,fix_type,6
1759877120.2570481,lat,-353633245
1759877120.2570481,lon,1491652241
1759877120.2570481,alt,100
1759877120.2570481,eph,121
1759877120.2570481,epv,200
1759877120.2570481,vel,0
1759877120.2570481,cog,0
1759877120.2570481,satellites_visible,10
1759877120.2570481,alt_ellipsoid,100
1759877120.2570481,h_acc,300
1759877120.2570481,v_acc,300
1759877120.2570481,vel_acc,0
1759877120.2570481,hdg_acc,0
1759877120.2570481,yaw,0
1759877120.455351,time_usec,69963000
1759877120.455351,fix_type,6
1759877120.455351,lat,-353633245
1759877120.455351,lon,1491652241
1759877120.455351,alt,100
1759877120.455351,eph,121
1759877120.455351,epv,200
1759877120.455351,vel,0
1759877120.455351,cog,0
1759877120.455351,satellites_visible,10
1759877120.455351,alt_ellipsoid,100
1759877120.455351,h_acc,300
1759877120.455351,v_acc,300
1759877120.455351,vel_acc,0
1759877120.455351,hdg_acc,0
1759877120.455351,yaw,0
1759877120.653673,time_usec,70163000
1759877120.653673,fix_type,6
1759877120.653673,lat,-353633245
1759877120.653673,lon,1491652241
1759877120.653673,alt,100
1759877120.653673,eph,121
1759877120.653673,epv,200
1759877120.653673,vel,0
1759877120.653673,cog,0
1759877120.653673,satellites_visible,10
1759877120.653673,alt_ellipsoid,100
1759877120.653673,h_acc,300
1759877120.653673,v_acc,300
1759877120.653673,vel_acc,0
1759877120.653673,hdg_acc,0
1759877120.653673,yaw,0
1759877120.857665,time_usec,70363000
1759877120.857665,fix_type,6
1759877120.857665,lat,-353633245
1759877120.857665,lon,1491652241
1759877120.857665,alt,100
1759877120.857665,eph,121
1759877120.857665,epv,200
1759877120.857665,vel,0
1759877120.857665,cog,0
1759877120.857665,satellites_visible,10
1759877120.857665,alt_ellipsoid,100
1759877120.857665,h_acc,300
1759877120.857665,v_acc,300
1759877120.857665,vel_acc,0
1759877120.857665,hdg_acc,0
1759877120.857665,yaw,0
1759877121.0557892,time_usec,70563000
1759877121.0557892,fix_type,6
1759877121.0557892,lat,-353633245
1759877121.0557892,lon,1491652241
1759877121.0557892,alt,100
1759877121.0557892,eph,121
1759877121.0557892,epv,200
1759877121.0557892,vel,0
1759877121.0557892,cog,0
1759877121.0557892,satellites_visible,10
1759877121.0557892,alt_ellipsoid,100
1759877121.0557892,h_acc,300
1759877121.0557892,v_acc,300
1759877121.0557892,vel_acc,0
1759877121.0557892,hdg_acc,0
1759877121.0557892,yaw,0
1759877121.2541466,time_usec,70763000
1759877121.2541466,fix_type,6
1759877121.2541466,lat,-353633245
1759877121.2541466,lon,1491652241
1759877121.2541466,alt,100
1759877121.2541466,eph,121
1759877121.2541466,epv,200
1759877121.2541466,vel,0
1759877121.2541466,cog,0
1759877121.2541466,satellites_visible,10
1759877121.2541466,alt_ellipsoid,100
1759877121.2541466,h_acc,300
1759877121.2541466,v_acc,300
1759877121.2541466,vel_acc,0
1759877121.2541466,hdg_acc,0
1759877121.2541466,yaw,0
1759877121.4579968,time_usec,70963000
1759877121.4579968,fix_type,6
1759877121.4579968,lat,-353633245
1759877121.4579968,lon,1491652241
1759877121.4579968,alt,100
1759877121.4579968,eph,121
1759877121.4579968,epv,200
1759877121.4579968,vel,0
1759877121.4579968,cog,0
1759877121.4579968,satellites_visible,10
1759877121.4579968,alt_ellipsoid,100
1759877121.4579968,h_acc,300
1759877121.4579968,v_acc,300
1759877121.4579968,vel_acc,0
1759877121.4579968,hdg_acc,0
1759877121.4579968,yaw,0
1759877121.6565728,time_usec,71163000
1759877121.6565728,fix_type,6
1759877121.6565728,lat,-353633245
1759877121.6565728,lon,1491652241
1759877121.6565728,alt,100
1759877121.6565728,eph,121
1759877121.6565728,epv,200
1759877121.6565728,vel,0
1759877121.6565728,cog,0
1759877121.6565728,satellites_visible,10
1759877121.6565728,alt_ellipsoid,100
1759877121.6565728,h_acc,300
1759877121.6565728,v_acc,300
1759877121.6565728,vel_acc,0
1759877121.6565728,hdg_acc,0
1759877121.6565728,yaw,0
1759877121.8548968,time_usec,71363000
1759877121.8548968,fix_type,6
1759877121.8548968,lat,-353633245
1759877121.8548968,lon,1491652241
1759877121.8548968,alt,100
1759877121.8548968,eph,121
1759877121.8548968,epv,200
1759877121.8548968,vel,0
1759877121.8548968,cog,0
1759877121.8548968,satellites_visible,10
1759877121.8548968,alt_ellipsoid,100
1759877121.8548968,h_acc,300
1759877121.8548968,v_acc,300
1759877121.8548968,vel_acc,0
1759877121.8548968,hdg_acc,0
1759877121.8548968,yaw,0
1759877122.058812,time_usec,71563000
1759877122.058812,fix_type,6
1759877122.058812,lat,-353633245
1759877122.058812,lon,1491652241
1759877122.058812,alt,100
1759877122.058812,eph,121
1759877122.058812,epv,200
1759877122.058812,vel,0
1759877122.058812,cog,0
1759877122.058812,satellites_visible,10
1759877122.058812,alt_ellipsoid,100
1759877122.058812,h_acc,300
1759877122.058812,v_acc,300
1759877122.058812,vel_acc,0
1759877122.058812,hdg_acc,0
1759877122.058812,yaw,0
1759877122.2572236,time_usec,71763000
1759877122.2572236,fix_type,6
1759877122.2572236,lat,-353633245
1759877122.2572236,lon,1491652241
1759877122.2572236,alt,100
1759877122.2572236,eph,121
1759877122.2572236,epv,200
1759877122.2572236,vel,0
1759877122.2572236,cog,0
1759877122.2572236,satellites_visible,10
1759877122.2572236,alt_ellipsoid,100
1759877122.2572236,h_acc,300
1759877122.2572236,v_acc,300
1759877122.2572236,vel_acc,0
1759877122.2572236,hdg_acc,0
1759877122.2572236,yaw,0
1759877122.4557445,time_usec,71963000
1759877122.4557445,fix_type,6
1759877122.4557445,lat,-353633245
1759877122.4557445,lon,1491652241
1759877122.4557445,alt,100
1759877122.4557445,eph,121
1759877122.4557445,epv,200
1759877122.4557445,vel,0
1759877122.4557445,cog,0
1759877122.4557445,satellites_visible,10
1759877122.4557445,alt_ellipsoid,100
1759877122.4557445,h_acc,300
1759877122.4557445,v_acc,300
1759877122.4557445,vel_acc,0
1759877122.4557445,hdg_acc,0
1759877122.4557445,yaw,0
1759877122.6538453,time_usec,72163000
1759877122.6538453,fix_type,6
1759877122.6538453,lat,-353633245
1759877122.6538453,lon,1491652241
1759877122.6538453,alt,100
1759877122.6538453,eph,121
1759877122.6538453,epv,200
1759877122.6538453,vel,0
1759877122.6538453,cog,0
1759877122.6538453,satellites_visible,10
1759877122.6538453,alt_ellipsoid,100
1759877122.6538453,h_acc,300
1759877122.6538453,v_acc,300
1759877122.6538453,vel_acc,0
1759877122.6538453,hdg_acc,0
1759877122.6538453,yaw,0
1759877122.8579319,time_usec,72363000
1759877122.8579319,fix_type,6
1759877122.8579319,lat,-353633245
1759877122.8579319,lon,1491652241
1759877122.8579319,alt,100
1759877122.8579319,eph,121
1759877122.8579319,epv,200
1759877122.8579319,vel,0
1759877122.8579319,cog,0
1759877122.8579319,satellites_visible,10
1759877122.8579319,alt_ellipsoid,100
1759877122.8579319,h_acc,300
1759877122.8579319,v_acc,300
1759877122.8579319,vel_acc,0
1759877122.8579319,hdg_acc,0
1759877122.8579319,yaw,0
1759877123.0562224,time_usec,72563000
1759877123.0562224,fix_type,6
1759877123.0562224,lat,-353633245
1759877123.0562224,lon,1491652241
1759877123.0562224,alt,100
1759877123.0562224,eph,121
1759877123.0562224,epv,200
1759877123.0562224,vel,0
1759877123.0562224,cog,0
1759877123.0562224,satellites_visible,10
1759877123.0562224,alt_ellipsoid,100
1759877123.0562224,h_acc,300
1759877123.0562224,v_acc,300
1759877123.0562224,vel_acc,0
1759877123.0562224,hdg_acc,0
1759877123.0562224,yaw,0
1759877123.254296,time_usec,72763000
1759877123.254296,fix_type,6
1759877123.254296,lat,-353633245
1759877123.254296,lon,1491652241
1759877123.254296,alt,100
1759877123.254296,eph,121
1759877123.254296,epv,200
1759877123.254296,vel,0
1759877123.254296,cog,0
1759877123.254296,satellites_visible,10
1759877123.254296,alt_ellipsoid,100
1759877123.254296,h_acc,300
1759877123.254296,v_acc,300
1759877123.254296,vel_acc,0
1759877123.254296,hdg_acc,0
1759877123.254296,yaw,0
1759877123.4582007,time_usec,72963000
1759877123.4582007,fix_type,6
1759877123.4582007,lat,-353633245
1759877123.4582007,lon,1491652241
1759877123.4582007,alt,100
1759877123.4582007,eph,121
1759877123.4582007,epv,200
1759877123.4582007,vel,0
1759877123.4582007,cog,0
1759877123.4582007,satellites_visible,10
1759877123.4582007,alt_ellipsoid,100
1759877123.4582007,h_acc,300
1759877123.4582007,v_acc,300
1759877123.4582007,vel_acc,0
1759877123.4582007,hdg_acc,0
1759877123.4582007,yaw,0
1759877123.6566262,time_usec,73163000
1759877123.6566262,fix_type,6
1759877123.6566262,lat,-353633245
1759877123.6566262,lon,1491652241
1759877123.6566262,alt,100
1759877123.6566262,eph,121
1759877123.6566262,epv,200
1759877123.6566262,vel,0
1759877123.6566262,cog,0
1759877123.6566262,satellites_visible,10
1759877123.6566262,alt_ellipsoid,100
1759877123.6566262,h_acc,300
1759877123.6566262,v_acc,300
1759877123.6566262,vel_acc,0
1759877123.6566262,hdg_acc,0
1759877123.6566262,yaw,0
1759877123.8552573,time_usec,73363000
1759877123.8552573,fix_type,6
1759877123.8552573,lat,-353633245
1759877123.8552573,lon,1491652241
1759877123.8552573,alt,100
1759877123.8552573,eph,121
1759877123.8552573,epv,200
1759877123.8552573,vel,0
1759877123.8552573,cog,0
1759877123.8552573,satellites_visible,10
1759877123.8552573,alt_ellipsoid,100
1759877123.8552573,h_acc,300
1759877123.8552573,v_acc,300
1759877123.8552573,vel_acc,0
1759877123.8552573,hdg_acc,0
1759877123.8552573,yaw,0
1759877124.0590904,time_usec,73563000
1759877124.0590904,fix_type,6
1759877124.0590904,lat,-353633245
1759877124.0590904,lon,1491652241
1759877124.0590904,alt,100
1759877124.0590904,eph,121
1759877124.0590904,epv,200
1759877124.0590904,vel,0
1759877124.0590904,cog,0
1759877124.0590904,satellites_visible,10
1759877124.0590904,alt_ellipsoid,100
1759877124.0590904,h_acc,300
1759877124.0590904,v_acc,300
1759877124.0590904,vel_acc,0
1759877124.0590904,hdg_acc,0
1759877124.0590904,yaw,0
1759877124.257244,time_usec,73763000
1759877124.257244,fix_type,6
1759877124.257244,lat,-353633245
1759877124.257244,lon,1491652241
1759877124.257244,alt,100
1759877124.257244,eph,121
1759877124.257244,epv,200
1759877124.257244,vel,0
1759877124.257244,cog,0
1759877124.257244,satellites_visible,10
1759877124.257244,alt_ellipsoid,100
1759877124.257244,h_acc,300
1759877124.257244,v_acc,300
1759877124.257244,vel_acc,0
1759877124.257244,hdg_acc,0
1759877124.257244,yaw,0
1759877124.4555647,time_usec,73963000
1759877124.4555647,fix_type,6
1759877124.4555647,lat,-353633245
1759877124.4555647,lon,1491652241
1759877124.4555647,alt,100
1759877124.4555647,eph,121
1759877124.4555647,epv,200
1759877124.4555647,vel,0
1759877124.4555647,cog,0
1759877124.4555647,satellites_visible,10
1759877124.4555647,alt_ellipsoid,100
1759877124.4555647,h_acc,300
1759877124.4555647,v_acc,300
1759877124.4555647,vel_acc,0
1759877124.4555647,hdg_acc,0
1759877124.4555647,yaw,0
1759877124.6539977,time_usec,74163000
1759877124.6539977,fix_type,6
1759877124.6539977,lat,-353633245
1759877124.6539977,lon,1491652241
1759877124.6539977,alt,100
1759877124.6539977,eph,121
1759877124.6539977,epv,200
1759877124.6539977,vel,0
1759877124.6539977,cog,0
1759877124.6539977,satellites_visible,10
1759877124.6539977,alt_ellipsoid,100
1759877124.6539977,h_acc,300
1759877124.6539977,v_acc,300
1759877124.6539977,vel_acc,0
1759877124.6539977,hdg_acc,0
1759877124.6539977,yaw,0
1759877124.8579044,time_usec,74363000
1759877124.8579044,fix_type,6
1759877124.8579044,lat,-353633245
1759877124.8579044,lon,1491652241
1759877124.8579044,alt,100
1759877124.8579044,eph,121
1759877124.8579044,epv,200
1759877124.8579044,vel,0
1759877124.8579044,cog,0
1759877124.8579044,satellites_visible,10
1759877124.8579044,alt_ellipsoid,100
1759877124.8579044,h_acc,300
1759877124.8579044,v_acc,300
1759877124.8579044,vel_acc,0
1759877124.8579044,hdg_acc,0
1759877124.8579044,yaw,0
1759877125.056163,time_usec,74563000
1759877125.056163,fix_type,6
1759877125.056163,lat,-353633245
1759877125.056163,lon,1491652241
1759877125.056163,alt,100
1759877125.056163,eph,121
1759877125.056163,epv,200
1759877125.056163,vel,0
1759877125.056163,cog,0
1759877125.056163,satellites_visible,10
1759877125.056163,alt_ellipsoid,100
1759877125.056163,h_acc,300
1759877125.056163,v_acc,300
1759877125.056163,vel_acc,0
1759877125.056163,hdg_acc,0
1759877125.056163,yaw,0
1759877125.2545257,time_usec,74763000
1759877125.2545257,fix_type,6
1759877125.2545257,lat,-353633245
1759877125.2545257,lon,1491652241
1759877125.2545257,alt,100
1759877125.2545257,eph,121
1759877125.2545257,epv,200
1759877125.2545257,vel,0
1759877125.2545257,cog,0
1759877125.2545257,satellites_visible,10
1759877125.2545257,alt_ellipsoid,100
1759877125.2545257,h_acc,300
1759877125.2545257,v_acc,300
1759877125.2545257,vel_acc,0
1759877125.2545257,hdg_acc,0
1759877125.2545257,yaw,0
1759877125.458394,time_usec,74963000
1759877125.458394,fix_type,6
1759877125.458394,lat,-353633245
1759877125.458394,lon,1491652241
1759877125.458394,alt,100
1759877125.458394,eph,121
1759877125.458394,epv,200
1759877125.458394,vel,0
1759877125.458394,cog,0
1759877125.458394,satellites_visible,10
1759877125.458394,alt_ellipsoid,100
1759877125.458394,h_acc,300
1759877125.458394,v_acc,300
1759877125.458394,vel_acc,0
1759877125.458394,hdg_acc,0
1759877125.458394,yaw,0
1759877125.657068,time_usec,75163000
