timestamp,field,value
1759877101.654185,time_usec,51264486
1759877101.654185,xacc,0
1759877101.654185,yacc,0
1759877101.654185,zacc,-1001
1759877101.654185,xgyro,0
1759877101.654185,ygyro,0
1759877101.654185,zgyro,0
1759877101.654185,xmag,232
1759877101.654185,ymag,52
1759877101.654185,zmag,-528
1759877101.654185,id,0
1759877101.654185,temperature,2803
1759877101.852436,time_usec,51464406
1759877101.852436,xacc,0
1759877101.852436,yacc,0
1759877101.852436,zacc,-1001
1759877101.852436,xgyro,0
1759877101.852436,ygyro,0
1759877101.852436,zgyro,0
1759877101.852436,xmag,232
1759877101.852436,ymag,52
1759877101.852436,zmag,-528
1759877101.852436,id,0
1759877101.852436,temperature,2804
1759877102.0562105,time_usec,51664326
1759877102.0562105,xacc,0
1759877102.0562105,yacc,0
1759877102.0562105,zacc,-1001
1759877102.0562105,xgyro,0
1759877102.0562105,ygyro,0
1759877102.0562105,zgyro,0
1759877102.0562105,xmag,232
1759877102.0562105,ymag,52
1759877102.0562105,zmag,-528
1759877102.0562105,id,0
1759877102.0562105,temperature,2805
1759877102.2545538,time_usec,51864246
1759877102.2545538,xacc,0
1759877102.2545538,yacc,0
1759877102.2545538,zacc,-1001
1759877102.2545538,xgyro,0
1759877102.2545538,ygyro,0
1759877102.2545538,zgyro,0
1759877102.2545538,xmag,232
1759877102.2545538,ymag,52
1759877102.2545538,zmag,-528
1759877102.2545538,id,0
1759877102.2545538,temperature,2806
1759877102.4529798,time_usec,52064166
1759877102.4529798,xacc,0
1759877102.4529798,yacc,0
1759877102.4529798,zacc,-1001
1759877102.4529798,xgyro,0
1759877102.4529798,ygyro,0
1759877102.4529798,zgyro,0
1759877102.4529798,xmag,232
1759877102.4529798,ymag,52
1759877102.4529798,zmag,-528
1759877102.4529798,id,0
1759877102.4529798,temperature,2807
1759877102.651394,time_usec,52264086
1759877102.651394,xacc,0
1759877102.651394,yacc,0
1759877102.651394,zacc,-1001
1759877102.651394,xgyro,0
1759877102.651394,ygyro,0
1759877102.651394,zgyro,0
1759877102.651394,xmag,232
1759877102.651394,ymag,52
1759877102.651394,zmag,-528
1759877102.651394,id,0
1759877102.651394,temperature,2809
1759877102.855417,time_usec,52464839
1759877102.855417,xacc,0
1759877102.855417,yacc,0
1759877102.855417,zacc,-1001
1759877102.855417,xgyro,0
1759877102.855417,ygyro,0
1759877102.855417,zgyro,0
1759877102.855417,xmag,232
1759877102.855417,ymag,52
1759877102.855417,zmag,-528
1759877102.855417,id,0
1759877102.855417,temperature,2810
1759877103.0535955,time_usec,52664759
1759877103.0535955,xacc,0
1759877103.0535955,yacc,0
1759877103.0535955,zacc,-1001
1759877103.0535955,xgyro,0
1759877103.0535955,ygyro,0
1759877103.0535955,zgyro,0
1759877103.0535955,xmag,232
1759877103.0535955,ymag,52
1759877103.0535955,zmag,-528
1759877103.0535955,id,0
1759877103.0535955,temperature,2811
1759877103.2519104,time_usec,52864679
1759877103.2519104,xacc,0
1759877103.2519104,yacc,0
1759877103.2519104,zacc,-1001
1759877103.2519104,xgyro,0
1759877103.2519104,ygyro,0
1759877103.2519104,zgyro,0
1759877103.2519104,xmag,232
1759877103.2519104,ymag,52
1759877103.2519104,zmag,-528
1759877103.2519104,id,0
1759877103.2519104,temperature,2812
1759877103.455911,time_usec,53064599
1759877103.455911,xacc,0
1759877103.455911,yacc,0
1759877103.455911,zacc,-1001
1759877103.455911,xgyro,0
1759877103.455911,ygyro,0
1759877103.455911,zgyro,0
1759877103.455911,xmag,232
1759877103.455911,ymag,52
1759877103.455911,zmag,-528
1759877103.455911,id,0
1759877103.455911,temperature,2813
1759877103.6543312,time_usec,53264519
1759877103.6543312,xacc,0
1759877103.6543312,yacc,0
1759877103.6543312,zacc,-1001
1759877103.6543312,xgyro,0
1759877103.6543312,ygyro,0
1759877103.6543312,zgyro,0
1759877103.6543312,xmag,232
1759877103.6543312,ymag,52
1759877103.6543312,zmag,-528
1759877103.6543312,id,0
1759877103.6543312,temperature,2814
1759877103.852641,time_usec,53464439
1759877103.852641,xacc,0
1759877103.852641,yacc,0
1759877103.852641,zacc,-1001
1759877103.852641,xgyro,0
1759877103.852641,ygyro,0
1759877103.852641,zgyro,0
1759877103.852641,xmag,232
1759877103.852641,ymag,52
1759877103.852641,zmag,-528
1759877103.852641,id,0
1759877103.852641,temperature,2815
1759877104.0563965,time_usec,53664359
1759877104.0563965,xacc,0
1759877104.0563965,yacc,0
1759877104.0563965,zacc,-1001
1759877104.0563965,xgyro,0
1759877104.0563965,ygyro,0
1759877104.0563965,zgyro,0
1759877104.0563965,xmag,232
1759877104.0563965,ymag,52
1759877104.0563965,zmag,-528
1759877104.0563965,id,0
1759877104.0563965,temperature,2816
1759877104.2549257,time_usec,53864279
1759877104.2549257,xacc,0
1759877104.2549257,yacc,0
1759877104.2549257,zacc,-1001
1759877104.2549257,xgyro,0
1759877104.2549257,ygyro,0
1759877104.2549257,zgyro,0
1759877104.2549257,xmag,232
1759877104.2549257,ymag,52
1759877104.2549257,zmag,-528
1759877104.2549257,id,0
1759877104.2549257,temperature,2818
1759877104.4531624,time_usec,54064199
1759877104.4531624,xacc,0
1759877104.4531624,yacc,0
1759877104.4531624,zacc,-1001
1759877104.4531624,xgyro,0
1759877104.4531624,ygyro,0
1759877104.4531624,zgyro,0
1759877104.4531624,xmag,232
1759877104.4531624,ymag,52
1759877104.4531624,zmag,-528
1759877104.4531624,id,0
1759877104.4531624,temperature,2819
1759877104.6515546,time_usec,54264119
1759877104.6515546,xacc,0
1759877104.6515546,yacc,0
1759877104.6515546,zacc,-1001
1759877104.6515546,xgyro,0
1759877104.6515546,ygyro,0
1759877104.6515546,zgyro,0
1759877104.6515546,xmag,232
1759877104.6515546,ymag,52
1759877104.6515546,zmag,-528
1759877104.6515546,id,0
1759877104.6515546,temperature,2820
1759877104.8555582,time_usec,54464039
1759877104.8555582,xacc,0
1759877104.8555582,yacc,0
1759877104.8555582,zacc,-1001
1759877104.8555582,xgyro,0
1759877104.8555582,ygyro,0
1759877104.8555582,zgyro,0
1759877104.8555582,xmag,232
1759877104.8555582,ymag,52
1759877104.8555582,zmag,-528
1759877104.8555582,id,0
1759877104.8555582,temperature,2821
1759877105.0539198,time_usec,54664792
1759877105.0539198,xacc,0
1759877105.0539198,yacc,0
1759877105.0539198,zacc,-1001
1759877105.0539198,xgyro,0
1759877105.0539198,ygyro,0
1759877105.0539198,zgyro,0
1759877105.0539198,xmag,232
1759877105.0539198,ymag,52
1759877105.0539198,zmag,-528
1759877105.0539198,id,0
1759877105.0539198,temperature,2822
1759877105.252176,time_usec,54864712
1759877105.252176,xacc,0
1759877105.252176,yacc,0
1759877105.252176,zacc,-1001
1759877105.252176,xgyro,0
1759877105.252176,ygyro,0
1759877105.252176,zgyro,0
1759877105.252176,xmag,232
1759877105.252176,ymag,52
1759877105.252176,zmag,-528
1759877105.252176,id,0
1759877105.252176,temperature,2823
1759877105.4560766,time_usec,55064632
1759877105.4560766,xacc,0
1759877105.4560766,yacc,0
1759877105.4560766,zacc,-1001
1759877105.4560766,xgyro,0
1759877105.4560766,ygyro,0
1759877105.4560766,zgyro,0
1759877105.4560766,xmag,232
1759877105.4560766,ymag,52
1759877105.4560766,zmag,-528
1759877105.4560766,id,0
1759877105.4560766,temperature,2824
1759877105.6544254,time_usec,55264552
1759877105.6544254,xacc,0
1759877105.6544254,yacc,0
1759877105.6544254,zacc,-1001
1759877105.6544254,xgyro,0
1759877105.6544254,ygyro,0
1759877105.6544254,zgyro,0
1759877105.6544254,xmag,232
1759877105.6544254,ymag,52
1759877105.6544254,zmag,-528
1759877105.6544254,id,0
1759877105.6544254,temperature,2825
1759877105.8528953,time_usec,55464472
1759877105.8528953,xacc,0
1759877105.8528953,yacc,0
1759877105.8528953,zacc,-1001
1759877105.8528953,xgyro,0
1759877105.8528953,ygyro,0
1759877105.8528953,zgyro,0
1759877105.8528953,xmag,232
1759877105.8528953,ymag,52
1759877105.8528953,zmag,-528
1759877105.8528953,id,0
1759877105.8528953,temperature,2826
1759877106.056744,time_usec,55664392
1759877106.056744,xacc,0
1759877106.056744,yacc,0
1759877106.056744,zacc,-1001
1759877106.056744,xgyro,0
1759877106.056744,ygyro,0
1759877106.056744,zgyro,0
1759877106.056744,xmag,232
1759877106.056744,ymag,52
1759877106.056744,zmag,-528
1759877106.056744,id,0
1759877106.056744,temperature,2828
1759877106.2550318,time_usec,55864312
1759877106.2550318,xacc,0
1759877106.2550318,yacc,0
1759877106.2550318,zacc,-1001
1759877106.2550318,xgyro,0
1759877106.2550318,ygyro,0
1759877106.2550318,zgyro,0
1759877106.2550318,xmag,232
1759877106.2550318,ymag,52
1759877106.2550318,zmag,-528
1759877106.2550318,id,0
1759877106.2550318,temperature,2829
1759877106.4533408,time_usec,56064232
1759877106.4533408,xacc,0
1759877106.4533408,yacc,0
1759877106.4533408,zacc,-1000
1759877106.4533408,xgyro,0
1759877106.4533408,ygyro,0
1759877106.4533408,zgyro,0
1759877106.4533408,xmag,232
1759877106.4533408,ymag,52
1759877106.4533408,zmag,-528
1759877106.4533408,id,0
1759877106.4533408,temperature,2830
1759877106.65173,time_usec,56264152
1759877106.65173,xacc,0
1759877106.65173,yacc,0
1759877106.65173,zacc,-1001
1759877106.65173,xgyro,0
1759877106.65173,ygyro,0
1759877106.65173,zgyro,0
1759877106.65173,xmag,232
1759877106.65173,ymag,52
1759877106.65173,zmag,-528
1759877106.65173,id,0
1759877106.65173,temperature,2831
1759877106.8555696,time_usec,56464072
1759877106.8555696,xacc,0
1759877106.8555696,yacc,0
1759877106.8555696,zacc,-1001
1759877106.8555696,xgyro,0
1759877106.8555696,ygyro,0
1759877106.8555696,zgyro,0
1759877106.8555696,xmag,232
1759877106.8555696,ymag,52
1759877106.8555696,zmag,-528
1759877106.8555696,id,0
1759877106.8555696,temperature,2832
1759877107.0540855,time_usec,56664825
1759877107.0540855,xacc,0
1759877107.0540855,yacc,0
1759877107.0540855,zacc,-1001
1759877107.0540855,xgyro,0
1759877107.0540855,ygyro,0
1759877107.0540855,zgyro,0
1759877107.0540855,xmag,232
1759877107.0540855,ymag,52
1759877107.0540855,zmag,-528
1759877107.0540855,id,0
1759877107.0540855,temperature,2833
1759877107.2522464,time_usec,56864745
1759877107.2522464,xacc,0
1759877107.2522464,yacc,0
1759877107.2522464,zacc,-1001
1759877107.2522464,xgyro,0
1759877107.2522464,ygyro,0
1759877107.2522464,zgyro,0
1759877107.2522464,xmag,232
1759877107.2522464,ymag,52
1759877107.2522464,zmag,-528
1759877107.2522464,id,0
1759877107.2522464,temperature,2834
1759877107.4563243,time_usec,57064665
1759877107.4563243,xacc,0
1759877107.4563243,yacc,0
1759877107.4563243,zacc,-1001
1759877107.4563243,xgyro,0
1759877107.4563243,ygyro,0
1759877107.4563243,zgyro,0
1759877107.4563243,xmag,232
1759877107.4563243,ymag,52
1759877107.4563243,zmag,-528
1759877107.4563243,id,0
1759877107.4563243,temperature,2835
1759877107.6546617,time_usec,57264585
1759877107.6546617,xacc,0
1759877107.6546617,yacc,0
1759877107.6546617,zacc,-1001
1759877107.6546617,xgyro,0
1759877107.6546617,ygyro,0
1759877107.6546617,zgyro,0
1759877107.6546617,xmag,232
1759877107.6546617,ymag,52
1759877107.6546617,zmag,-528
1759877107.6546617,id,0
1759877107.6546617,temperature,2836
1759877107.8528795,time_usec,57464505
1759877107.8528795,xacc,0
1759877107.8528795,yacc,0
1759877107.8528795,zacc,-1001
1759877107.8528795,xgyro,0
1759877107.8528795,ygyro,0
1759877107.8528795,zgyro,0
1759877107.8528795,xmag,232
1759877107.8528795,ymag,52
1759877107.8528795,zmag,-528
1759877107.8528795,id,0
1759877107.8528795,temperature,2838
1759877108.0567536,time_usec,57664425
1759877108.0567536,xacc,0
1759877108.0567536,yacc,0
1759877108.0567536,zacc,-1001
1759877108.0567536,xgyro,0
1759877108.0567536,ygyro,0
1759877108.0567536,zgyro,0
1759877108.0567536,xmag,232
1759877108.0567536,ymag,52
1759877108.0567536,zmag,-528
1759877108.0567536,id,0
1759877108.0567536,temperature,2839
1759877108.255346,time_usec,57864345
1759877108.255346,xacc,0
1759877108.255346,yacc,0
1759877108.255346,zacc,-1001
1759877108.255346,xgyro,0
1759877108.255346,ygyro,0
1759877108.255346,zgyro,0
1759877108.255346,xmag,232
1759877108.255346,ymag,52
1759877108.255346,zmag,-528
1759877108.255346,id,0
1759877108.255346,temperature,2840
1759877108.4537404,time_usec,58064265
1759877108.4537404,xacc,0
1759877108.4537404,yacc,0
1759877108.4537404,zacc,-1001
1759877108.4537404,xgyro,0
1759877108.4537404,ygyro,0
1759877108.4537404,zgyro,0
1759877108.4537404,xmag,232
1759877108.4537404,ymag,52
1759877108.4537404,zmag,-528
1759877108.4537404,id,0
1759877108.4537404,temperature,2841
1759877108.6518905,time_usec,58264185
1759877108.6518905,xacc,0
1759877108.6518905,yacc,0
1759877108.6518905,zacc,-1001
1759877108.6518905,xgyro,0
1759877108.6518905,ygyro,0
1759877108.6518905,zgyro,0
1759877108.6518905,xmag,232
1759877108.6518905,ymag,52
1759877108.6518905,zmag,-528
1759877108.6518905,id,0
1759877108.6518905,temperature,2842
1759877108.8560035,time_usec,58464105
1759877108.8560035,xacc,0
1759877108.8560035,yacc,0
1759877108.8560035,zacc,-1001
1759877108.8560035,xgyro,0
1759877108.8560035,ygyro,0
1759877108.8560035,zgyro,0
1759877108.8560035,xmag,232
1759877108.8560035,ymag,52
1759877108.8560035,zmag,-528
1759877108.8560035,id,0
1759877108.8560035,temperature,2843
1759877109.0541499,time_usec,58664025
1759877109.0541499,xacc,0
1759877109.0541499,yacc,0
1759877109.0541499,zacc,-1001
1759877109.0541499,xgyro,0
1759877109.0541499,ygyro,0
1759877109.0541499,zgyro,0
1759877109.0541499,xmag,232
1759877109.0541499,ymag,52
1759877109.0541499,zmag,-528
1759877109.0541499,id,0
1759877109.0541499,temperature,2844
1759877109.252435,time_usec,58864778
1759877109.252435,xacc,0
1759877109.252435,yacc,0
1759877109.252435,zacc,-1001
1759877109.252435,xgyro,0
1759877109.252435,ygyro,0
1759877109.252435,zgyro,0
1759877109.252435,xmag,232
1759877109.252435,ymag,52
1759877109.252435,zmag,-528
1759877109.252435,id,0
1759877109.252435,temperature,2845
1759877109.4564228,time_usec,59064698
1759877109.4564228,xacc,0
1759877109.4564228,yacc,0
1759877109.4564228,zacc,-1001
1759877109.4564228,xgyro,0
1759877109.4564228,ygyro,0
1759877109.4564228,zgyro,0
1759877109.4564228,xmag,232
1759877109.4564228,ymag,52
1759877109.4564228,zmag,-528
1759877109.4564228,id,0
1759877109.4564228,temperature,2846
1759877109.6547318,time_usec,59264618
1759877109.6547318,xacc,0
1759877109.6547318,yacc,0
1759877109.6547318,zacc,-1001
1759877109.6547318,xgyro,0
1759877109.6547318,ygyro,0
1759877109.6547318,zgyro,0
1759877109.6547318,xmag,232
1759877109.6547318,ymag,52
1759877109.6547318,zmag,-528
1759877109.6547318,id,0
1759877109.6547318,temperature,2848
1759877109.8530715,time_usec,59464538
1759877109.8530715,xacc,0
1759877109.8530715,yacc,0
1759877109.8530715,zacc,-1001
1759877109.8530715,xgyro,0
1759877109.8530715,ygyro,0
1759877109.8530715,zgyro,0
1759877109.8530715,xmag,232
1759877109.8530715,ymag,52
1759877109.8530715,zmag,-528
1759877109.8530715,id,0
1759877109.8530715,temperature,2849
1759877110.0571396,time_usec,59664458
1759877110.0571396,xacc,0
1759877110.0571396,yacc,0
1759877110.0571396,zacc,-1001
1759877110.0571396,xgyro,0
1759877110.0571396,ygyro,0
1759877110.0571396,zgyro,0
1759877110.0571396,xmag,232
1759877110.0571396,ymag,52
1759877110.0571396,zmag,-528
1759877110.0571396,id,0
1759877110.0571396,temperature,2850
1759877110.255383,time_usec,59864378
1759877110.255383,xacc,0
1759877110.255383,yacc,0
1759877110.255383,zacc,-1001
1759877110.255383,xgyro,0
1759877110.255383,ygyro,0
1759877110.255383,zgyro,0
1759877110.255383,xmag,232
1759877110.255383,ymag,52
1759877110.255383,zmag,-528
1759877110.255383,id,0
1759877110.255383,temperature,2851
1759877110.4537075,time_usec,60064298
1759877110.4537075,xacc,0
1759877110.4537075,yacc,0
1759877110.4537075,zacc,-1001
1759877110.4537075,xgyro,0
1759877110.4537075,ygyro,0
1759877110.4537075,zgyro,0
1759877110.4537075,xmag,232
1759877110.4537075,ymag,52
1759877110.4537075,zmag,-528
1759877110.4537075,id,0
1759877110.4537075,temperature,2852
1759877110.6520326,time_usec,60264218
1759877110.6520326,xacc,0
1759877110.6520326,yacc,0
1759877110.6520326,zacc,-1001
1759877110.6520326,xgyro,0
1759877110.6520326,ygyro,0
1759877110.6520326,zgyro,0
1759877110.6520326,xmag,232
1759877110.6520326,ymag,52
1759877110.6520326,zmag,-528
1759877110.6520326,id,0
1759877110.6520326,temperature,2853
1759877110.8560035,time_usec,60464138
1759877110.8560035,xacc,0
1759877110.8560035,yacc,0
1759877110.8560035,zacc,-1001
1759877110.8560035,xgyro,0
1759877110.8560035,ygyro,0
1759877110.8560035,zgyro,0
1759877110.8560035,xmag,232
1759877110.8560035,ymag,52
1759877110.8560035,zmag,-528
1759877110.8560035,id,0
1759877110.8560035,temperature,2854
1759877111.0543022,time_usec,60664058
1759877111.0543022,xacc,0
1759877111.0543022,yacc,0
1759877111.0543022,zacc,-1001
1759877111.0543022,xgyro,0
1759877111.0543022,ygyro,0
1759877111.0543022,zgyro,0
1759877111.0543022,xmag,232
1759877111.0543022,ymag,52
1759877111.0543022,zmag,-528
1759877111.0543022,id,0
1759877111.0543022,temperature,2855
1759877111.2526476,time_usec,60864811
1759877111.2526476,xacc,0
1759877111.2526476,yacc,0
1759877111.2526476,zacc,-1001
1759877111.2526476,xgyro,0
1759877111.2526476,ygyro,0
1759877111.2526476,zgyro,0
1759877111.2526476,xmag,232
1759877111.2526476,ymag,52
1759877111.2526476,zmag,-528
1759877111.2526476,id,0
1759877111.2526476,temperature,2856
1759877111.4566536,time_usec,61064731
1759877111.4566536,xacc,0
1759877111.4566536,yacc,0
1759877111.4566536,zacc,-1001
1759877111.4566536,xgyro,0
1759877111.4566536,ygyro,0
1759877111.4566536,zgyro,0
1759877111.4566536,xmag,232
1759877111.4566536,ymag,52
1759877111.4566536,zmag,-528
1759877111.4566536,id,0
1759877111.4566536,temperature,2857
1759877111.6549506,time_usec,61264651
1759877111.6549506,xacc,0
1759877111.6549506,yacc,0
1759877111.6549506,zacc,-1001
1759877111.6549506,xgyro,0
1759877111.6549506,ygyro,0
1759877111.6549506,zgyro,0
1759877111.6549506,xmag,232
1759877111.6549506,ymag,52
1759877111.6549506,zmag,-528
1759877111.6549506,id,0
1759877111.6549506,temperature,2858
1759877111.8532717,time_usec,61464571
1759877111.8532717,xacc,0
1759877111.8532717,yacc,0
1759877111.8532717,zacc,-1001
1759877111.8532717,xgyro,0
1759877111.8532717,ygyro,0
1759877111.8532717,zgyro,0
1759877111.8532717,xmag,232
1759877111.8532717,ymag,52
1759877111.8532717,zmag,-528
1759877111.8532717,id,0
1759877111.8532717,temperature,2860
1759877112.0572073,time_usec,61664491
1759877112.0572073,xacc,0
1759877112.0572073,yacc,0
1759877112.0572073,zacc,-1001
1759877112.0572073,xgyro,0
1759877112.0572073,ygyro,0
1759877112.0572073,zgyro,0
1759877112.0572073,xmag,232
1759877112.0572073,ymag,52
1759877112.0572073,zmag,-528
1759877112.0572073,id,0
1759877112.0572073,temperature,2861
1759877112.2556107,time_usec,61864411
1759877112.2556107,xacc,0
1759877112.2556107,yacc,0
1759877112.2556107,zacc,-1001
1759877112.2556107,xgyro,0
1759877112.2556107,ygyro,0
1759877112.2556107,zgyro,0
1759877112.2556107,xmag,232
1759877112.2556107,ymag,52
1759877112.2556107,zmag,-528
1759877112.2556107,id,0
1759877112.2556107,temperature,2862
1759877112.4539244,time_usec,62064331
1759877112.4539244,xacc,0
1759877112.4539244,yacc,0
1759877112.4539244,zacc,-1001
1759877112.4539244,xgyro,0
1759877112.4539244,ygyro,0
1759877112.4539244,zgyro,0
1759877112.4539244,xmag,232
1759877112.4539244,ymag,52
1759877112.4539244,zmag,-528
1759877112.4539244,id,0
1759877112.4539244,temperature,2863
1759877112.6522944,time_usec,62264251
1759877112.6522944,xacc,0
1759877112.6522944,yacc,0
1759877112.6522944,zacc,-1001
1759877112.6522944,xgyro,0
1759877112.6522944,ygyro,0
1759877112.6522944,zgyro,0
1759877112.6522944,xmag,232
1759877112.6522944,ymag,52
1759877112.6522944,zmag,-528
1759877112.6522944,id,0
1759877112.6522944,temperature,2864
1759877112.8562806,time_usec,62464171
1759877112.8562806,xacc,0
1759877112.8562806,yacc,0
1759877112.8562806,zacc,-1001
1759877112.8562806,xgyro,0
1759877112.8562806,ygyro,0
1759877112.8562806,zgyro,0
1759877112.8562806,xmag,232
1759877112.8562806,ymag,52
1759877112.8562806,zmag,-528
1759877112.8562806,id,0
1759877112.8562806,temperature,2865
1759877113.054596,time_usec,62664091
1759877113.054596,xacc,0
1759877113.054596,yacc,0
1759877113.054596,zacc,-1001
1759877113.054596,xgyro,0
1759877113.054596,ygyro,0
1759877113.054596,zgyro,0
1759877113.054596,xmag,232
1759877113.054596,ymag,52
1759877113.054596,zmag,-528
1759877113.054596,id,0
1759877113.054596,temperature,2866
1759877113.2529519,time_usec,62864844
1759877113.2529519,xacc,0
1759877113.2529519,yacc,0
1759877113.2529519,zacc,-1001
1759877113.2529519,xgyro,0
1759877113.2529519,ygyro,0
1759877113.2529519,zgyro,0
1759877113.2529519,xmag,232
1759877113.2529519,ymag,52
1759877113.2529519,zmag,-528
1759877113.2529519,id,0
1759877113.2529519,temperature,2867
1759877113.4569387,time_usec,63064764
1759877113.4569387,xacc,0
1759877113.4569387,yacc,0
1759877113.4569387,zacc,-1001
1759877113.4569387,xgyro,0
1759877113.4569387,ygyro,0
1759877113.4569387,zgyro,0
1759877113.4569387,xmag,232
1759877113.4569387,ymag,52
1759877113.4569387,zmag,-528
1759877113.4569387,id,0
1759877113.4569387,temperature,2868
1759877113.6552505,time_usec,63264684
1759877113.6552505,xacc,0
1759877113.6552505,yacc,0
1759877113.6552505,zacc,-1001
1759877113.6552505,xgyro,0
1759877113.6552505,ygyro,0
1759877113.6552505,zgyro,0
1759877113.6552505,xmag,232
1759877113.6552505,ymag,52
1759877113.6552505,zmag,-528
1759877113.6552505,id,0
1759877113.6552505,temperature,2869
1759877113.8535733,time_usec,63464604
1759877113.8535733,xacc,0
1759877113.8535733,yacc,0
1759877113.8535733,zacc,-1001
1759877113.8535733,xgyro,0
1759877113.8535733,ygyro,0
1759877113.8535733,zgyro,0
1759877113.8535733,xmag,232
1759877113.8535733,ymag,52
1759877113.8535733,zmag,-528
1759877113.8535733,id,0
1759877113.8535733,temperature,2870
1759877114.0575001,time_usec,63664524
1759877114.0575001,xacc,0
1759877114.0575001,yacc,0
1759877114.0575001,zacc,-1001
1759877114.0575001,xgyro,0
1759877114.0575001,ygyro,0
1759877114.0575001,zgyro,0
1759877114.0575001,xmag,232
1759877114.0575001,ymag,52
1759877114.0575001,zmag,-528
1759877114.0575001,id,0
1759877114.0575001,temperature,2872
1759877114.2558863,time_usec,63864444
1759877114.2558863,xacc,0
1759877114.2558863,yacc,0
1759877114.2558863,zacc,-1001
1759877114.2558863,xgyro,0
1759877114.2558863,ygyro,0
1759877114.2558863,zgyro,0
1759877114.2558863,xmag,232
1759877114.2558863,ymag,52
1759877114.2558863,zmag,-528
1759877114.2558863,id,0
1759877114.2558863,temperature,2873
1759877114.4542377,time_usec,64064364
1759877114.4542377,xacc,0
1759877114.4542377,yacc,0
1759877114.4542377,zacc,-1001
1759877114.4542377,xgyro,0
1759877114.4542377,ygyro,0
1759877114.4542377,zgyro,0
1759877114.4542377,xmag,232
1759877114.4542377,ymag,52
1759877114.4542377,zmag,-528
1759877114.4542377,id,0
1759877114.4542377,temperature,2874
1759877114.6525295,time_usec,64264284
1759877114.6525295,xacc,0
1759877114.6525295,yacc,0
1759877114.6525295,zacc,-1001
1759877114.6525295,xgyro,0
1759877114.6525295,ygyro,0
1759877114.6525295,zgyro,0
1759877114.6525295,xmag,232
1759877114.6525295,ymag,52
1759877114.6525295,zmag,-528
1759877114.6525295,id,0
1759877114.6525295,temperature,2875
1759877114.8565185,time_usec,64464204
1759877114.8565185,xacc,0
1759877114.8565185,yacc,0
1759877114.8565185,zacc,-1001
1759877114.8565185,xgyro,0
1759877114.8565185,ygyro,0
1759877114.8565185,zgyro,0
1759877114.8565185,xmag,232
1759877114.8565185,ymag,52
1759877114.8565185,zmag,-528
1759877114.8565185,id,0
1759877114.8565185,temperature,2876
1759877115.0548437,time_usec,64664124
1759877115.0548437,xacc,0
1759877115.0548437,yacc,0
1759877115.0548437,zacc,-1001
1759877115.0548437,xgyro,0
1759877115.0548437,ygyro,0
1759877115.0548437,zgyro,0
1759877115.0548437,xmag,232
1759877115.0548437,ymag,52
1759877115.0548437,zmag,-528
1759877115.0548437,id,0
1759877115.0548437,temperature,2877
1759877115.2531736,time_usec,64864044
1759877115.2531736,xacc,0
1759877115.2531736,yacc,0
1759877115.2531736,zacc,-1001
1759877115.2531736,xgyro,0
1759877115.2531736,ygyro,0
1759877115.2531736,zgyro,1
1759877115.2531736,xmag,232
1759877115.2531736,ymag,52
1759877115.2531736,zmag,-528
1759877115.2531736,id,0
1759877115.2531736,temperature,2878
1759877115.4571686,time_usec,65064797
1759877115.4571686,xacc,0
1759877115.4571686,yacc,0
1759877115.4571686,zacc,-1000
1759877115.4571686,xgyro,0
1759877115.4571686,ygyro,0
1759877115.4571686,zgyro,0
1759877115.4571686,xmag,232
1759877115.4571686,ymag,52
1759877115.4571686,zmag,-528
1759877115.4571686,id,0
1759877115.4571686,temperature,2879
1759877115.655489,time_usec,65264717
1759877115.655489,xacc,0
1759877115.655489,yacc,0
1759877115.655489,zacc,-1001
1759877115.655489,xgyro,0
1759877115.655489,ygyro,1
1759877115.655489,zgyro,0
1759877115.655489,xmag,232
1759877115.655489,ymag,52
1759877115.655489,zmag,-528
1759877115.655489,id,0
1759877115.655489,temperature,2880
1759877115.8540545,time_usec,65464637
1759877115.8540545,xacc,0
1759877115.8540545,yacc,0
1759877115.8540545,zacc,-1001
1759877115.8540545,xgyro,0
1759877115.8540545,ygyro,0
1759877115.8540545,zgyro,0
1759877115.8540545,xmag,232
1759877115.8540545,ymag,52
1759877115.8540545,zmag,-528
1759877115.8540545,id,0
1759877115.8540545,temperature,2881
1759877116.0578716,time_usec,65664557
1759877116.0578716,xacc,0
1759877116.0578716,yacc,0
1759877116.0578716,zacc,-1001
1759877116.0578716,xgyro,0
1759877116.0578716,ygyro,0
1759877116.0578716,zgyro,0
1759877116.0578716,xmag,232
1759877116.0578716,ymag,52
1759877116.0578716,zmag,-528
1759877116.0578716,id,0
1759877116.0578716,temperature,2882
1759877116.256119,time_usec,65864477
1759877116.256119,xacc,0
1759877116.256119,yacc,0
1759877116.256119,zacc,-1001
1759877116.256119,xgyro,0
1759877116.256119,ygyro,0
1759877116.256119,zgyro,0
1759877116.256119,xmag,232
1759877116.256119,ymag,52
1759877116.256119,zmag,-528
1759877116.256119,id,0
1759877116.256119,temperature,2883
1759877116.4546225,time_usec,66064397
1759877116.4546225,xacc,0
1759877116.4546225,yacc,0
1759877116.4546225,zacc,-1001
1759877116.4546225,xgyro,0
1759877116.4546225,ygyro,1
1759877116.4546225,zgyro,0
1759877116.4546225,xmag,232
1759877116.4546225,ymag,52
1759877116.4546225,zmag,-528
1759877116.4546225,id,0
1759877116.4546225,temperature,2885
1759877116.652747,time_usec,66264317
1759877116.652747,xacc,0
1759877116.652747,yacc,0
1759877116.652747,zacc,-1001
1759877116.652747,xgyro,0
1759877116.652747,ygyro,0
1759877116.652747,zgyro,0
1759877116.652747,xmag,232
1759877116.652747,ymag,52
1759877116.652747,zmag,-528
1759877116.652747,id,0
1759877116.652747,temperature,2886
1759877116.8566885,time_usec,66464237
1759877116.8566885,xacc,0
1759877116.8566885,yacc,0
1759877116.8566885,zacc,-1001
1759877116.8566885,xgyro,0
1759877116.8566885,ygyro,0
1759877116.8566885,zgyro,0
1759877116.8566885,xmag,232
1759877116.8566885,ymag,52
1759877116.8566885,zmag,-528
1759877116.8566885,id,0
1759877116.8566885,temperature,2887
1759877117.055015,time_usec,66664157
1759877117.055015,xacc,0
1759877117.055015,yacc,0
1759877117.055015,zacc,-1001
1759877117.055015,xgyro,0
1759877117.055015,ygyro,0
1759877117.055015,zgyro,0
1759877117.055015,xmag,232
1759877117.055015,ymag,52
1759877117.055015,zmag,-528
1759877117.055015,id,0
1759877117.055015,temperature,2888
1759877117.2533457,time_usec,66864077
1759877117.2533457,xacc,0
1759877117.2533457,yacc,0
1759877117.2533457,zacc,-1001
1759877117.2533457,xgyro,0
1759877117.2533457,ygyro,0
1759877117.2533457,zgyro,0
1759877117.2533457,xmag,232
1759877117.2533457,ymag,52
1759877117.2533457,zmag,-528
1759877117.2533457,id,0
1759877117.2533457,temperature,2889
1759877117.4573617,time_usec,67064830
1759877117.4573617,xacc,0
1759877117.4573617,yacc,0
1759877117.4573617,zacc,-1001
1759877117.4573617,xgyro,0
1759877117.4573617,ygyro,0
1759877117.4573617,zgyro,0
1759877117.4573617,xmag,232
1759877117.4573617,ymag,52
1759877117.4573617,zmag,-528
1759877117.4573617,id,0
1759877117.4573617,temperature,2890
1759877117.6556678,time_usec,67264750
1759877117.6556678,xacc,0
1759877117.6556678,yacc,0
1759877117.6556678,zacc,-1001
1759877117.6556678,xgyro,0
1759877117.6556678,ygyro,1
1759877117.6556678,zgyro,0
1759877117.6556678,xmag,232
1759877117.6556678,ymag,52
1759877117.6556678,zmag,-528
1759877117.6556678,id,0
1759877117.6556678,temperature,2891
1759877117.8539903,time_usec,67464670
1759877117.8539903,xacc,0
1759877117.8539903,yacc,0
1759877117.8539903,zacc,-1001
1759877117.8539903,xgyro,0
1759877117.8539903,ygyro,1
1759877117.8539903,zgyro,0
1759877117.8539903,xmag,232
1759877117.8539903,ymag,52
1759877117.8539903,zmag,-528
1759877117.8539903,id,0
1759877117.8539903,temperature,2892
1759877118.0580025,time_usec,67664590
1759877118.0580025,xacc,0
1759877118.0580025,yacc,0
1759877118.0580025,zacc,-1001
1759877118.0580025,xgyro,1
1759877118.0580025,ygyro,0
1759877118.0580025,zgyro,0
1759877118.0580025,xmag,232
1759877118.0580025,ymag,52
1759877118.0580025,zmag,-528
1759877118.0580025,id,0
1759877118.0580025,temperature,2893
1759877118.2562883,time_usec,67864510
1759877118.2562883,xacc,0
1759877118.2562883,yacc,0
1759877118.2562883,zacc,-1001
1759877118.2562883,xgyro,1
1759877118.2562883,ygyro,0
1759877118.2562883,zgyro,0
1759877118.2562883,xmag,232
1759877118.2562883,ymag,52
1759877118.2562883,zmag,-528
1759877118.2562883,id,0
1759877118.2562883,temperature,2894
1759877118.4546225,time_usec,68064430
1759877118.4546225,xacc,0
1759877118.4546225,yacc,0
1759877118.4546225,zacc,-1001
1759877118.4546225,xgyro,1
1759877118.4546225,ygyro,1
1759877118.4546225,zgyro,0
1759877118.4546225,xmag,232
1759877118.4546225,ymag,52
1759877118.4546225,zmag,-528
1759877118.4546225,id,0
1759877118.4546225,temperature,2895
1759877118.6529317,time_usec,68264350
1759877118.6529317,xacc,0
1759877118.6529317,yacc,0
1759877118.6529317,zacc,-1001
1759877118.6529317,xgyro,0
1759877118.6529317,ygyro,0
1759877118.6529317,zgyro,0
1759877118.6529317,xmag,232
1759877118.6529317,ymag,52
1759877118.6529317,zmag,-528
1759877118.6529317,id,0
1759877118.6529317,temperature,2896
1759877118.8570178,time_usec,68464270
1759877118.8570178,xacc,0
1759877118.8570178,yacc,0
1759877118.8570178,zacc,-1001
1759877118.8570178,xgyro,0
1759877118.8570178,ygyro,0
1759877118.8570178,zgyro,1
1759877118.8570178,xmag,232
1759877118.8570178,ymag,52
1759877118.8570178,zmag,-528
1759877118.8570178,id,0
1759877118.8570178,temperature,2897
1759877119.0553267,time_usec,68664190
1759877119.0553267,xacc,0
1759877119.0553267,yacc,0
1759877119.0553267,zacc,-1001
1759877119.0553267,xgyro,1
1759877119.0553267,ygyro,0
1759877119.0553267,zgyro,1
1759877119.0553267,xmag,232
1759877119.0553267,ymag,52
1759877119.0553267,zmag,-528
1759877119.0553267,id,0
1759877119.0553267,temperature,2898
1759877119.2537756,time_usec,68864110
1759877119.2537756,xacc,0
1759877119.2537756,yacc,0
1759877119.2537756,zacc,-1000
1759877119.2537756,xgyro,0
1759877119.2537756,ygyro,0
1759877119.2537756,zgyro,0
1759877119.2537756,xmag,232
1759877119.2537756,ymag,52
1759877119.2537756,zmag,-528
1759877119.2537756,id,0
1759877119.2537756,temperature,2900
1759877119.457537,time_usec,69064030
1759877119.457537,xacc,0
1759877119.457537,yacc,0
1759877119.457537,zacc,-1001
1759877119.457537,xgyro,0
1759877119.457537,ygyro,1
1759877119.457537,zgyro,1
1759877119.457537,xmag,232
1759877119.457537,ymag,52
1759877119.457537,zmag,-528
1759877119.457537,id,0
1759877119.457537,temperature,2901
1759877119.6559465,time_usec,69264783
1759877119.6559465,xacc,0
1759877119.6559465,yacc,0
1759877119.6559465,zacc,-1001
1759877119.6559465,xgyro,0
1759877119.6559465,ygyro,1
1759877119.6559465,zgyro,0
1759877119.6559465,xmag,232
1759877119.6559465,ymag,52
1759877119.6559465,zmag,-528
1759877119.6559465,id,0
1759877119.6559465,temperature,2902
1759877119.8542624,time_usec,69464703
1759877119.8542624,xacc,0
1759877119.8542624,yacc,0
1759877119.8542624,zacc,-1001
1759877119.8542624,xgyro,0
1759877119.8542624,ygyro,1
1759877119.8542624,zgyro,1
1759877119.8542624,xmag,232
1759877119.8542624,ymag,52
1759877119.8542624,zmag,-528
1759877119.8542624,id,0
1759877119.8542624,temperature,2903
1759877120.0581658,time_usec,69664623
1759877120.0581658,xacc,0
1759877120.0581658,yacc,0
1759877120.0581658,zacc,-1001
1759877120.0581658,xgyro,0
1759877120.0581658,ygyro,0
1759877120.0581658,zgyro,1
1759877120.0581658,xmag,232
1759877120.0581658,ymag,52
1759877120.0581658,zmag,-528
1759877120.0581658,id,0
1759877120.0581658,temperature,2904
1759877120.2567484,time_usec,69864543
1759877120.2567484,xacc,0
1759877120.2567484,yacc,0
1759877120.2567484,zacc,-1001
1759877120.2567484,xgyro,0
1759877120.2567484,ygyro,1
1759877120.2567484,zgyro,1
1759877120.2567484,xmag,232
1759877120.2567484,ymag,52
1759877120.2567484,zmag,-528
1759877120.2567484,id,0
1759877120.2567484,temperature,2905
1759877120.4550524,time_usec,70064463
1759877120.4550524,xacc,0
1759877120.4550524,yacc,0
1759877120.4550524,zacc,-1001
1759877120.4550524,xgyro,0
1759877120.4550524,ygyro,0
1759877120.4550524,zgyro,0
1759877120.4550524,xmag,232
1759877120.4550524,ymag,52
1759877120.4550524,zmag,-528
1759877120.4550524,id,0
1759877120.4550524,temperature,2906
1759877120.653337,time_usec,70264383
1759877120.653337,xacc,0
1759877120.653337,yacc,0
1759877120.653337,zacc,-1001
1759877120.653337,xgyro,1
1759877120.653337,ygyro,1
1759877120.653337,zgyro,0
1759877120.653337,xmag,232
1759877120.653337,ymag,52
1759877120.653337,zmag,-528
1759877120.653337,id,0
1759877120.653337,temperature,2907
1759877120.8573425,time_usec,70464303
1759877120.8573425,xacc,0
1759877120.8573425,yacc,0
1759877120.8573425,zacc,-1001
1759877120.8573425,xgyro,0
1759877120.8573425,ygyro,0
1759877120.8573425,zgyro,1
1759877120.8573425,xmag,232
1759877120.8573425,ymag,52
1759877120.8573425,zmag,-528
1759877120.8573425,id,0
1759877120.8573425,temperature,2908
1759877121.0554848,time_usec,70664223
1759877121.0554848,xacc,0
1759877121.0554848,yacc,0
1759877121.0554848,zacc,-1001
1759877121.0554848,xgyro,0
1759877121.0554848,ygyro,1
1759877121.0554848,zgyro,1
1759877121.0554848,xmag,232
1759877121.0554848,ymag,52
1759877121.0554848,zmag,-528
1759877121.0554848,id,0
1759877121.0554848,temperature,2909
1759877121.2538383,time_usec,70864143
1759877121.2538383,xacc,0
1759877121.2538383,yacc,0
1759877121.2538383,zacc,-1001
1759877121.2538383,xgyro,1
1759877121.2538383,ygyro,1
1759877121.2538383,zgyro,1
1759877121.2538383,xmag,232
1759877121.2538383,ymag,52
1759877121.2538383,zmag,-528
1759877121.2538383,id,0
1759877121.2538383,temperature,2910
1759877121.4576871,time_usec,71064063
1759877121.4576871,xacc,0
1759877121.4576871,yacc,0
1759877121.4576871,zacc,-1001
1759877121.4576871,xgyro,1
1759877121.4576871,ygyro,0
1759877121.4576871,zgyro,0
1759877121.4576871,xmag,232
1759877121.4576871,ymag,52
1759877121.4576871,zmag,-528
1759877121.4576871,id,0
1759877121.4576871,temperature,2911
1759877121.656253,time_usec,71264816
1759877121.656253,xacc,0
1759877121.656253,yacc,0
1759877121.656253,zacc,-1001
1759877121.656253,xgyro,1
1759877121.656253,ygyro,0
1759877121.656253,zgyro,1
1759877121.656253,xmag,232
1759877121.656253,ymag,52
1759877121.656253,zmag,-528
1759877121.656253,id,0
1759877121.656253,temperature,2912
1759877121.854578,time_usec,71464736
1759877121.854578,xacc,0
1759877121.854578,yacc,0
1759877121.854578,zacc,-1001
1759877121.854578,xgyro,0
1759877121.854578,ygyro,0
1759877121.854578,zgyro,1
1759877121.854578,xmag,232
1759877121.854578,ymag,52
1759877121.854578,zmag,-528
1759877121.854578,id,0
1759877121.854578,temperature,2913
1759877122.0584931,time_usec,71664656
1759877122.0584931,xacc,0
1759877122.0584931,yacc,0
1759877122.0584931,zacc,-1000
1759877122.0584931,xgyro,1
1759877122.0584931,ygyro,1
1759877122.0584931,zgyro,1
1759877122.0584931,xmag,232
1759877122.0584931,ymag,52
1759877122.0584931,zmag,-528
1759877122.0584931,id,0
1759877122.0584931,temperature,2914
1759877122.2568994,time_usec,71864576
1759877122.2568994,xacc,0
1759877122.2568994,yacc,0
1759877122.2568994,zacc,-1001
1759877122.2568994,xgyro,1
1759877122.2568994,ygyro,1
1759877122.2568994,zgyro,1
1759877122.2568994,xmag,232
1759877122.2568994,ymag,52
1759877122.2568994,zmag,-528
1759877122.2568994,id,0
1759877122.2568994,temperature,2915
1759877122.4553766,time_usec,72064496
1759877122.4553766,xacc,0
1759877122.4553766,yacc,0
1759877122.4553766,zacc,-1001
1759877122.4553766,xgyro,1
1759877122.4553766,ygyro,0
1759877122.4553766,zgyro,1
1759877122.4553766,xmag,232
1759877122.4553766,ymag,52
1759877122.4553766,zmag,-528
1759877122.4553766,id,0
1759877122.4553766,temperature,2917
1759877122.653517,time_usec,72264416
1759877122.653517,xacc,0
1759877122.653517,yacc,0
1759877122.653517,zacc,-1001
1759877122.653517,xgyro,1
1759877122.653517,ygyro,0
1759877122.653517,zgyro,1
1759877122.653517,xmag,232
1759877122.653517,ymag,52
1759877122.653517,zmag,-528
1759877122.653517,id,0
1759877122.653517,temperature,2918
1759877122.8576088,time_usec,72464336
1759877122.8576088,xacc,0
1759877122.8576088,yacc,0
1759877122.8576088,zacc,-1001
1759877122.8576088,xgyro,1
1759877122.8576088,ygyro,1
1759877122.8576088,zgyro,1
1759877122.8576088,xmag,232
1759877122.8576088,ymag,52
1759877122.8576088,zmag,-528
1759877122.8576088,id,0
1759877122.8576088,temperature,2919
1759877123.0558984,time_usec,72664256
1759877123.0558984,xacc,0
1759877123.0558984,yacc,0
1759877123.0558984,zacc,-1001
1759877123.0558984,xgyro,1
1759877123.0558984,ygyro,1
1759877123.0558984,zgyro,1
1759877123.0558984,xmag,232
1759877123.0558984,ymag,52
1759877123.0558984,zmag,-528
1759877123.0558984,id,0
1759877123.0558984,temperature,2920
1759877123.2539918,time_usec,72864176
1759877123.2539918,xacc,0
1759877123.2539918,yacc,0
1759877123.2539918,zacc,-1001
1759877123.2539918,xgyro,0
1759877123.2539918,ygyro,1
1759877123.2539918,zgyro,1
1759877123.2539918,xmag,232
1759877123.2539918,ymag,52
1759877123.2539918,zmag,-528
1759877123.2539918,id,0
1759877123.2539918,temperature,2921
1759877123.457904,time_usec,73064096
1759877123.457904,xacc,0
1759877123.457904,yacc,0
1759877123.457904,zacc,-1001
1759877123.457904,xgyro,1
1759877123.457904,ygyro,1
1759877123.457904,zgyro,1
1759877123.457904,xmag,232
1759877123.457904,ymag,52
1759877123.457904,zmag,-528
1759877123.457904,id,0
1759877123.457904,temperature,2922
1759877123.656326,time_usec,73264849
1759877123.656326,xacc,0
1759877123.656326,yacc,0
1759877123.656326,zacc,-1001
1759877123.656326,xgyro,1
1759877123.656326,ygyro,1
1759877123.656326,zgyro,1
1759877123.656326,xmag,232
1759877123.656326,ymag,52
1759877123.656326,zmag,-528
1759877123.656326,id,0
1759877123.656326,temperature,2923
1759877123.854911,time_usec,73464769
1759877123.854911,xacc,0
1759877123.854911,yacc,0
1759877123.854911,zacc,-1001
1759877123.854911,xgyro,1
1759877123.854911,ygyro,1
1759877123.854911,zgyro,0
1759877123.854911,xmag,232
1759877123.854911,ymag,52
1759877123.854911,zmag,-528
1759877123.854911,id,0
1759877123.854911,temperature,2924
1759877124.0587695,time_usec,73664689
1759877124.0587695,xacc,0
1759877124.0587695,yacc,0
1759877124.0587695,zacc,-1000
1759877124.0587695,xgyro,1
1759877124.0587695,ygyro,1
1759877124.0587695,zgyro,1
1759877124.0587695,xmag,232
1759877124.0587695,ymag,52
1759877124.0587695,zmag,-528
1759877124.0587695,id,0
1759877124.0587695,temperature,2925
1759877124.256944,time_usec,73864609
1759877124.256944,xacc,0
1759877124.256944,yacc,0
1759877124.256944,zacc,-1001
1759877124.256944,xgyro,1
1759877124.256944,ygyro,1
1759877124.256944,zgyro,1
1759877124.256944,xmag,232
1759877124.256944,ymag,52
1759877124.256944,zmag,-528
1759877124.256944,id,0
1759877124.256944,temperature,2926
1759877124.4552615,time_usec,74064529
1759877124.4552615,xacc,0
1759877124.4552615,yacc,0
1759877124.4552615,zacc,-1000
1759877124.4552615,xgyro,1
1759877124.4552615,ygyro,1
1759877124.4552615,zgyro,1
1759877124.4552615,xmag,232
1759877124.4552615,ymag,52
1759877124.4552615,zmag,-528
1759877124.4552615,id,0
1759877124.4552615,temperature,2927
1759877124.6536036,time_usec,74264449
1759877124.6536036,xacc,0
1759877124.6536036,yacc,0
1759877124.6536036,zacc,-1001
1759877124.6536036,xgyro,1
1759877124.6536036,ygyro,1
1759877124.6536036,zgyro,0
1759877124.6536036,xmag,232
1759877124.6536036,ymag,52
1759877124.6536036,zmag,-528
1759877124.6536036,id,0
1759877124.6536036,temperature,2928
1759877124.8576002,time_usec,74464369
1759877124.8576002,xacc,0
1759877124.8576002,yacc,0
1759877124.8576002,zacc,-1001
1759877124.8576002,xgyro,1
1759877124.8576002,ygyro,1
1759877124.8576002,zgyro,1
1759877124.8576002,xmag,232
1759877124.8576002,ymag,52
1759877124.8576002,zmag,-528
1759877124.8576002,id,0
1759877124.8576002,temperature,2929
1759877125.0558622,time_usec,74664289
1759877125.0558622,xacc,0
1759877125.0558622,yacc,0
1759877125.0558622,zacc,-1001
1759877125.0558622,xgyro,1
1759877125.0558622,ygyro,1
1759877125.0558622,zgyro,1
1759877125.0558622,xmag,232
1759877125.0558622,ymag,52
1759877125.0558622,zmag,-528
1759877125.0558622,id,0
1759877125.0558622,temperature,2930
1759877125.2542024,time_usec,74864209
1759877125.2542024,xacc,0
1759877125.2542024,yacc,0
1759877125.2542024,zacc,-1001
1759877125.2542024,xgyro,1
1759877125.2542024,ygyro,1
1759877125.2542024,zgyro,1
1759877125.2542024,xmag,232
1759877125.2542024,ymag,52
1759877125.2542024,zmag,-528
1759877125.2542024,id,0
1759877125.2542024,temperature,2931
1759877125.4580944,time_usec,75064129
1759877125.4580944,xacc,0
1759877125.4580944,yacc,0
1759877125.4580944,zacc,-1001
1759877125.4580944,xgyro,1
1759877125.4580944,ygyro,1
1759877125.4580944,zgyro,1
1759877125.4580944,xmag,232
1759877125.4580944,ymag,52
1759877125.4580944,zmag,-528
1759877125.4580944,id,0
1759877125.4580944,temperature,2932
1759877125.6566684,time_usec,75264049
1759877125.6566684,xacc,0
1759877125.6566684,yacc,0
1759877125.6566684,zacc,-1001
1759877125.6566684,xgyro,1
1759877125.6566684,ygyro,1
1759877125.6566684,zgyro,1
1759877125.6566684,xmag,232
1759877125.6566684,ymag,52
1759877125.6566684,zmag,-528
1759877125.6566684,id,0
1759877125.6566684,temperature,2933
1759877125.85491,time_usec,75464802
1759877125.85491,xacc,0
1759877125.85491,yacc,0
1759877125.85491,zacc,-1001
1759877125.85491,xgyro,1
1759877125.85491,ygyro,1
1759877125.85491,zgyro,1
1759877125.85491,xmag,232
1759877125.85491,ymag,52
1759877125.85491,zmag,-528
1759877125.85491,id,0
1759877125.85491,temperature,2934
1759877126.05877,time_usec,75664722
1759877126.05877,xacc,0
1759877126.05877,yacc,0
1759877126.05877,zacc,-1001
1759877126.05877,xgyro,0
1759877126.05877,ygyro,1
1759877126.05877,zgyro,1
1759877126.05877,xmag,232
1759877126.05877,ymag,52
1759877126.05877,zmag,-528
1759877126.05877,id,0
1759877126.05877,temperature,2935
1759877126.2571526,time_usec,75864642
1759877126.2571526,xacc,0
1759877126.2571526,yacc,0
1759877126.2571526,zacc,-1001
1759877126.2571526,xgyro,1
1759877126.2571526,ygyro,1
1759877126.2571526,zgyro,1
1759877126.2571526,xmag,232
1759877126.2571526,ymag,52
1759877126.2571526,zmag,-528
1759877126.2571526,id,0
1759877126.2571526,temperature,2936
1759877126.4555764,time_usec,76064562
1759877126.4555764,xacc,0
1759877126.4555764,yacc,0
1759877126.4555764,zacc,-1001
1759877126.4555764,xgyro,1
1759877126.4555764,ygyro,1
1759877126.4555764,zgyro,1
1759877126.4555764,xmag,232
1759877126.4555764,ymag,52
1759877126.4555764,zmag,-528
1759877126.4555764,id,0
1759877126.4555764,temperature,2937
1759877126.6538506,time_usec,76264482
1759877126.6538506,xacc,0
1759877126.6538506,yacc,0
1759877126.6538506,zacc,-1001
1759877126.6538506,xgyro,1
1759877126.6538506,ygyro,1
1759877126.6538506,zgyro,1
1759877126.6538506,xmag,232
1759877126.6538506,ymag,52
1759877126.6538506,zmag,-528
1759877126.6538506,id,0
1759877126.6538506,temperature,2939
1759877126.857626,time_usec,76464402
1759877126.857626,xacc,0
1759877126.857626,yacc,0
1759877126.857626,zacc,-1001
1759877126.857626,xgyro,1
1759877126.857626,ygyro,1
1759877126.857626,zgyro,1
1759877126.857626,xmag,232
1759877126.857626,ymag,52
1759877126.857626,zmag,-528
1759877126.857626,id,0
1759877126.857626,temperature,2940
1759877127.056185,time_usec,76664322
1759877127.056185,xacc,0
1759877127.056185,yacc,0
1759877127.056185,zacc,-1001
1759877127.056185,xgyro,1
1759877127.056185,ygyro,1
1759877127.056185,zgyro,1
1759877127.056185,xmag,232
1759877127.056185,ymag,52
1759877127.056185,zmag,-528
1759877127.056185,id,0
1759877127.056185,temperature,2941
1759877127.254591,time_usec,76864242
1759877127.254591,xacc,0
1759877127.254591,yacc,0
1759877127.254591,zacc,-1001
1759877127.254591,xgyro,1
1759877127.254591,ygyro,1
1759877127.254591,zgyro,1
1759877127.254591,xmag,232
1759877127.254591,ymag,52
1759877127.254591,zmag,-528
1759877127.254591,id,0
1759877127.254591,temperature,2942
1759877127.45832,time_usec,77064162
1759877127.45832,xacc,0
1759877127.45832,yacc,0
1759877127.45832,zacc,-1001
1759877127.45832,xgyro,1
1759877127.45832,ygyro,1
1759877127.45832,zgyro,1
1759877127.45832,xmag,232
1759877127.45832,ymag,52
1759877127.45832,zmag,-528
1759877127.45832,id,0
1759877127.45832,temperature,2943
1759877127.656943,time_usec,77264082
1759877127.656943,xacc,0
1759877127.656943,yacc,0
1759877127.656943,zacc,-1001
1759877127.656943,xgyro,1
1759877127.656943,ygyro,1
1759877127.656943,zgyro,1
1759877127.656943,xmag,232
1759877127.656943,ymag,52
1759877127.656943,zmag,-528
1759877127.656943,id,0
1759877127.656943,temperature,2944
1759877127.85521,time_usec,77464835
1759877127.85521,xacc,0
1759877127.85521,yacc,0
1759877127.85521,zacc,-1001
1759877127.85521,xgyro,1
1759877127.85521,ygyro,1
1759877127.85521,zgyro,1
1759877127.85521,xmag,232
1759877127.85521,ymag,52
1759877127.85521,zmag,-528
1759877127.85521,id,0
1759877127.85521,temperature,2945
1759877128.0590453,time_usec,77664755
1759877128.0590453,xacc,0
1759877128.0590453,yacc,0
1759877128.0590453,zacc,-1001
1759877128.0590453,xgyro,1
1759877128.0590453,ygyro,1
1759877128.0590453,zgyro,1
1759877128.0590453,xmag,232
1759877128.0590453,ymag,52
1759877128.0590453,zmag,-528
1759877128.0590453,id,0
1759877128.0590453,temperature,2946
1759877128.2574854,time_usec,77864675
1759877128.2574854,xacc,0
1759877128.2574854,yacc,0
1759877128.2574854,zacc,-1001
1759877128.2574854,xgyro,1
1759877128.2574854,ygyro,1
1759877128.2574854,zgyro,1
1759877128.2574854,xmag,232
1759877128.2574854,ymag,52
1759877128.2574854,zmag,-528
1759877128.2574854,id,0
1759877128.2574854,temperature,2947
1759877128.4558845,time_usec,78064595
1759877128.4558845,xacc,0
1759877128.4558845,yacc,0
1759877128.4558845,zacc,-1001
1759877128.4558845,xgyro,1
1759877128.4558845,ygyro,1
1759877128.4558845,zgyro,1
1759877128.4558845,xmag,232
1759877128.4558845,ymag,52
1759877128.4558845,zmag,-528
1759877128.4558845,id,0
1759877128.4558845,temperature,2948
1759877128.6541166,time_usec,78264515
1759877128.6541166,xacc,0
1759877128.6541166,yacc,0
1759877128.6541166,zacc,-1000
1759877128.6541166,xgyro,1
1759877128.6541166,ygyro,1
1759877128.6541166,zgyro,1
1759877128.6541166,xmag,232
1759877128.6541166,ymag,52
1759877128.6541166,zmag,-528
1759877128.6541166,id,0
1759877128.6541166,temperature,2949
1759877128.8583612,time_usec,78464435
1759877128.8583612,xacc,0
1759877128.8583612,yacc,0
1759877128.8583612,zacc,-1001
1759877128.8583612,xgyro,1
1759877128.8583612,ygyro,1
1759877128.8583612,zgyro,1
1759877128.8583612,xmag,232
1759877128.8583612,ymag,52
1759877128.8583612,zmag,-528
1759877128.8583612,id,0
1759877128.8583612,temperature,2950
1759877129.056308,time_usec,78664355
1759877129.056308,xacc,0
1759877129.056308,yacc,0
1759877129.056308,zacc,-1001
1759877129.056308,xgyro,1
1759877129.056308,ygyro,1
1759877129.056308,zgyro,1
1759877129.056308,xmag,232
1759877129.056308,ymag,52
1759877129.056308,zmag,-528
1759877129.056308,id,0
1759877129.056308,temperature,2951
1759877129.254705,time_usec,78864275
1759877129.254705,xacc,0
1759877129.254705,yacc,0
1759877129.254705,zacc,-1001
1759877129.254705,xgyro,1
1759877129.254705,ygyro,1
1759877129.254705,zgyro,1
1759877129.254705,xmag,232
1759877129.254705,ymag,52
1759877129.254705,zmag,-528
1759877129.254705,id,0
1759877129.254705,temperature,2952
1759877129.4587042,time_usec,79064195
1759877129.4587042,xacc,0
1759877129.4587042,yacc,0
1759877129.4587042,zacc,-1001
1759877129.4587042,xgyro,1
1759877129.4587042,ygyro,1
1759877129.4587042,zgyro,1
1759877129.4587042,xmag,232
1759877129.4587042,ymag,52
1759877129.4587042,zmag,-528
1759877129.4587042,id,0
1759877129.4587042,temperature,2953
1759877129.6570446,time_usec,79264115
1759877129.6570446,xacc,0
1759877129.6570446,yacc,0
1759877129.6570446,zacc,-1001
1759877129.6570446,xgyro,1
1759877129.6570446,ygyro,1
1759877129.6570446,zgyro,1
1759877129.6570446,xmag,232
1759877129.6570446,ymag,52
1759877129.6570446,zmag,-528
1759877129.6570446,id,0
1759877129.6570446,temperature,2954
1759877129.8552818,time_usec,79464035
1759877129.8552818,xacc,0
1759877129.8552818,yacc,0
1759877129.8552818,zacc,-1001
1759877129.8552818,xgyro,1
1759877129.8552818,ygyro,1
1759877129.8552818,zgyro,1
1759877129.8552818,xmag,232
1759877129.8552818,ymag,52
1759877129.8552818,zmag,-528
1759877129.8552818,id,0
1759877129.8552818,temperature,2955
1759877130.0591671,time_usec,79664788
1759877130.0591671,xacc,0
1759877130.0591671,yacc,0
1759877130.0591671,zacc,-1001
1759877130.0591671,xgyro,1
1759877130.0591671,ygyro,1
1759877130.0591671,zgyro,1
1759877130.0591671,xmag,232
1759877130.0591671,ymag,52
1759877130.0591671,zmag,-528
1759877130.0591671,id,0
1759877130.0591671,temperature,2956
1759877130.257731,time_usec,79864708
1759877130.257731,xacc,0
1759877130.257731,yacc,0
1759877130.257731,zacc,-1001
1759877130.257731,xgyro,1
1759877130.257731,ygyro,1
1759877130.257731,zgyro,1
1759877130.257731,xmag,232
1759877130.257731,ymag,52
1759877130.257731,zmag,-528
1759877130.257731,id,0
1759877130.257731,temperature,2957
1759877130.4561064,time_usec,80064628
1759877130.4561064,xacc,0
1759877130.4561064,yacc,0
1759877130.4561064,zacc,-1001
1759877130.4561064,xgyro,1
1759877130.4561064,ygyro,1
1759877130.4561064,zgyro,1
1759877130.4561064,xmag,232
1759877130.4561064,ymag,52
1759877130.4561064,zmag,-528
1759877130.4561064,id,0
1759877130.4561064,temperature,2958
1759877130.6543553,time_usec,80264548
1759877130.6543553,xacc,0
1759877130.6543553,yacc,0
1759877130.6543553,zacc,-1001
1759877130.6543553,xgyro,1
1759877130.6543553,ygyro,1
1759877130.6543553,zgyro,1
1759877130.6543553,xmag,232
1759877130.6543553,ymag,52
1759877130.6543553,zmag,-528
1759877130.6543553,id,0
1759877130.6543553,temperature,2959
1759877130.858804,time_usec,80464468
1759877130.858804,xacc,0
1759877130.858804,yacc,0
1759877130.858804,zacc,-1000
1759877130.858804,xgyro,1
1759877130.858804,ygyro,1
1759877130.858804,zgyro,1
1759877130.858804,xmag,232
1759877130.858804,ymag,52
1759877130.858804,zmag,-528
1759877130.858804,id,0
1759877130.858804,temperature,2960
1759877131.0566053,time_usec,80664388
1759877131.0566053,xacc,0
1759877131.0566053,yacc,0
1759877131.0566053,zacc,-1001
1759877131.0566053,xgyro,1
1759877131.0566053,ygyro,1
1759877131.0566053,zgyro,1
1759877131.0566053,xmag,232
1759877131.0566053,ymag,52
1759877131.0566053,zmag,-528
1759877131.0566053,id,0
1759877131.0566053,temperature,2961
1759877131.2549655,time_usec,80864308
1759877131.2549655,xacc,0
1759877131.2549655,yacc,0
1759877131.2549655,zacc,-1001
1759877131.2549655,xgyro,1
1759877131.2549655,ygyro,1
1759877131.2549655,zgyro,1
1759877131.2549655,xmag,232
1759877131.2549655,ymag,52
1759877131.2549655,zmag,-528
1759877131.2549655,id,0
1759877131.2549655,temperature,2962
1759877131.4588892,time_usec,81064228
1759877131.4588892,xacc,0
1759877131.4588892,yacc,0
1759877131.4588892,zacc,-1001
1759877131.4588892,xgyro,1
1759877131.4588892,ygyro,1
1759877131.4588892,zgyro,1
1759877131.4588892,xmag,232
1759877131.4588892,ymag,52
1759877131.4588892,zmag,-528
1759877131.4588892,id,0
1759877131.4588892,temperature,2963
1759877131.6572874,time_usec,81264148
1759877131.6572874,xacc,0
1759877131.6572874,yacc,0
1759877131.6572874,zacc,-1001
1759877131.6572874,xgyro,1
1759877131.6572874,ygyro,1
1759877131.6572874,zgyro,1
1759877131.6572874,xmag,232
1759877131.6572874,ymag,52
1759877131.6572874,zmag,-528
1759877131.6572874,id,0
1759877131.6572874,temperature,2964
1759877131.8556542,time_usec,81464068
1759877131.8556542,xacc,0
1759877131.8556542,yacc,0
1759877131.8556542,zacc,-1001
1759877131.8556542,xgyro,1
1759877131.8556542,ygyro,1
1759877131.8556542,zgyro,1
1759877131.8556542,xmag,232
1759877131.8556542,ymag,52
1759877131.8556542,zmag,-528
1759877131.8556542,id,0
1759877131.8556542,temperature,2965
1759877132.0595329,time_usec,81664821
1759877132.0595329,xacc,0
1759877132.0595329,yacc,0
1759877132.0595329,zacc,-1001
1759877132.0595329,xgyro,1
1759877132.0595329,ygyro,1
1759877132.0595329,zgyro,1
1759877132.0595329,xmag,232
1759877132.0595329,ymag,52
1759877132.0595329,zmag,-528
1759877132.0595329,id,0
1759877132.0595329,temperature,2966
1759877132.2583025,time_usec,81864741
1759877132.2583025,xacc,0
1759877132.2583025,yacc,0
1759877132.2583025,zacc,-1001
1759877132.2583025,xgyro,1
1759877132.2583025,ygyro,1
1759877132.2583025,zgyro,1
1759877132.2583025,xmag,232
1759877132.2583025,ymag,52
1759877132.2583025,zmag,-528
1759877132.2583025,id,0
1759877132.2583025,temperature,2967
1759877132.4562767,time_usec,82064661
1759877132.4562767,xacc,0
1759877132.4562767,yacc,0
1759877132.4562767,zacc,-1001
1759877132.4562767,xgyro,1
1759877132.4562767,ygyro,1
1759877132.4562767,zgyro,1
1759877132.4562767,xmag,232
1759877132.4562767,ymag,52
1759877132.4562767,zmag,-528
1759877132.4562767,id,0
1759877132.4562767,temperature,2968
1759877132.654581,time_usec,82264581
1759877132.654581,xacc,0
1759877132.654581,yacc,0
1759877132.654581,zacc,-1001
1759877132.654581,xgyro,1
1759877132.654581,ygyro,1
1759877132.654581,zgyro,1
1759877132.654581,xmag,232
1759877132.654581,ymag,52
1759877132.654581,zmag,-528
1759877132.654581,id,0
1759877132.654581,temperature,2969
1759877132.8586721,time_usec,82464501
1759877132.8586721,xacc,0
1759877132.8586721,yacc,0
1759877132.8586721,zacc,-1000
1759877132.8586721,xgyro,1
1759877132.8586721,ygyro,1
1759877132.8586721,zgyro,1
1759877132.8586721,xmag,232
1759877132.8586721,ymag,52
1759877132.8586721,zmag,-528
1759877132.8586721,id,0
1759877132.8586721,temperature,2970
1759877133.0567923,time_usec,82664421
1759877133.0567923,xacc,0
1759877133.0567923,yacc,0
1759877133.0567923,zacc,-1001
1759877133.0567923,xgyro,1
1759877133.0567923,ygyro,1
1759877133.0567923,zgyro,1
1759877133.0567923,xmag,232
1759877133.0567923,ymag,52
1759877133.0567923,zmag,-528
1759877133.0567923,id,0
1759877133.0567923,temperature,2971
1759877133.2551444,time_usec,82864341
1759877133.2551444,xacc,0
1759877133.2551444,yacc,0
1759877133.2551444,zacc,-1001
1759877133.2551444,xgyro,1
1759877133.2551444,ygyro,1
1759877133.2551444,zgyro,1
1759877133.2551444,xmag,232
1759877133.2551444,ymag,52
1759877133.2551444,zmag,-528
1759877133.2551444,id,0
1759877133.2551444,temperature,2972
1759877133.4590225,time_usec,83064261
1759877133.4590225,xacc,0
1759877133.4590225,yacc,0
1759877133.4590225,zacc,-1001
1759877133.4590225,xgyro,1
1759877133.4590225,ygyro,1
1759877133.4590225,zgyro,1
1759877133.4590225,xmag,232
1759877133.4590225,ymag,52
1759877133.4590225,zmag,-528
1759877133.4590225,id,0
1759877133.4590225,temperature,2974
1759877133.6574244,time_usec,83264181
1759877133.6574244,xacc,0
1759877133.6574244,yacc,0
1759877133.6574244,zacc,-1001
1759877133.6574244,xgyro,1
1759877133.6574244,ygyro,1
1759877133.6574244,zgyro,1
1759877133.6574244,xmag,232
1759877133.6574244,ymag,52
1759877133.6574244,zmag,-528
1759877133.6574244,id,0
1759877133.6574244,temperature,2975
1759877133.8557873,time_usec,83464101
1759877133.8557873,xacc,0
1759877133.8557873,yacc,0
1759877133.8557873,zacc,-1001
1759877133.8557873,xgyro,1
1759877133.8557873,ygyro,1
1759877133.8557873,zgyro,1
1759877133.8557873,xmag,232
1759877133.8557873,ymag,52
1759877133.8557873,zmag,-528
1759877133.8557873,id,0
1759877133.8557873,temperature,2976
1759877134.055091,time_usec,83664854
1759877134.055091,xacc,0
1759877134.055091,yacc,0
1759877134.055091,zacc,-1001
1759877134.055091,xgyro,1
1759877134.055091,ygyro,1
1759877134.055091,zgyro,1
1759877134.055091,xmag,232
1759877134.055091,ymag,52
1759877134.055091,zmag,-528
1759877134.055091,id,0
1759877134.055091,temperature,2977
1759877134.2589014,time_usec,83864774
1759877134.2589014,xacc,0
1759877134.2589014,yacc,0
1759877134.2589014,zacc,-1001
1759877134.2589014,xgyro,1
1759877134.2589014,ygyro,1
1759877134.2589014,zgyro,1
1759877134.2589014,xmag,232
1759877134.2589014,ymag,52
1759877134.2589014,zmag,-528
1759877134.2589014,id,0
1759877134.2589014,temperature,2978
1759877134.4571965,time_usec,84064694
1759877134.4571965,xacc,0
1759877134.4571965,yacc,0
1759877134.4571965,zacc,-1001
1759877134.4571965,xgyro,1
1759877134.4571965,ygyro,1
1759877134.4571965,zgyro,1
1759877134.4571965,xmag,232
1759877134.4571965,ymag,52
1759877134.4571965,zmag,-528
1759877134.4571965,id,0
1759877134.4571965,temperature,2979
1759877134.6555681,time_usec,84264614
1759877134.6555681,xacc,0
1759877134.6555681,yacc,0
1759877134.6555681,zacc,-1001
1759877134.6555681,xgyro,1
1759877134.6555681,ygyro,1
1759877134.6555681,zgyro,1
1759877134.6555681,xmag,232
1759877134.6555681,ymag,52
1759877134.6555681,zmag,-528
1759877134.6555681,id,0
1759877134.6555681,temperature,2980
1759877134.8594558,time_usec,84464534
1759877134.8594558,xacc,0
1759877134.8594558,yacc,0
1759877134.8594558,zacc,-1001
1759877134.8594558,xgyro,1
1759877134.8594558,ygyro,1
1759877134.8594558,zgyro,1
1759877134.8594558,xmag,232
1759877134.8594558,ymag,52
1759877134.8594558,zmag,-528
1759877134.8594558,id,0
1759877134.8594558,temperature,2981
1759877135.0578427,time_usec,84664454
1759877135.0578427,xacc,0
1759877135.0578427,yacc,0
1759877135.0578427,zacc,-1001
1759877135.0578427,xgyro,1
1759877135.0578427,ygyro,1
1759877135.0578427,zgyro,1
1759877135.0578427,xmag,232
1759877135.0578427,ymag,52
1759877135.0578427,zmag,-528
1759877135.0578427,id,0
1759877135.0578427,temperature,2982
1759877135.256171,time_usec,84864374
1759877135.256171,xacc,0
1759877135.256171,yacc,0
1759877135.256171,zacc,-1001
1759877135.256171,xgyro,1
1759877135.256171,ygyro,1
1759877135.256171,zgyro,1
1759877135.256171,xmag,232
1759877135.256171,ymag,52
1759877135.256171,zmag,-528
1759877135.256171,id,0
1759877135.256171,temperature,2983
1759877135.454485,time_usec,85064294
1759877135.454485,xacc,0
1759877135.454485,yacc,0
1759877135.454485,zacc,-1001
1759877135.454485,xgyro,1
1759877135.454485,ygyro,1
